store_number,name,address,postcode,city,state,phone,latitude,longitude,has_pharmacy
1,PENANG PLAZA,"GROUND FLOOR,PENANG PLAZA,126 JLN BURMAH",10050,Pulau Pinang,Pulau Pinang,042282805,5.42138,100.325,false
2,KOMPLEKS PKNS SHAH ALAM,"GROUND FLOOR,KOMPLEKS PKNS",40000,Selangor,Selangor,03-5519 5392,3.07075,101.517,true
4,TAMAN TUN DR ISMAIL,"4 JALAN TUN MOHD FUAD DUA,TAMAN TUN DR ISMAIL",60000,Wil. Persekutuan,Kuala Lumpur,03-7729 8600,3.14049,101.629,false
8,KEPONG,"21 JALAN 54,DESA JAYA",52100,Wil. Persekutuan,Kuala Lumpur,03-6272 1104,3.21323,101.632,false
9,GUARDIAN AEON MALL TAMAN MALURI,"Lot T15, Third Floor, AEON Mall Taman Maluri, Jalan Jejaka, Maluri",55100,Wil. Persekutuan,Kuala Lumpur,0392867532,3.126829706636609,101.72794633121599,false
10,BANGSAR SHOPPING CENTRE,"Lot F10, Bangsar Shopping Centre, 285, Jalan Maarof, Taman Bukit Bandaraya",59000,Wil. Persekutuan,Kuala Lumpur,0320113642,3.14322,101.667,true
11,PLAZA PELANGI,"GROUND FLOOR, PLAZA PELANGI,2, JALAN KUNING,TAMAN PELANGI",80400,Johor,Johor,07-331 7721,1.47948,103.765,false
12,AEON MELAKA,"LOT F19, 1ST FLOOR,JUSCO MELAKA SHOPPING CENTRE,LEBOH AYER KEROH",75450,Melaka,Melaka,06-234 6297,2.23421,102.282,true
13,AEON WANGSA MAJU,"LOT F04, ALPHA ANGLE,JLN R1, SEKSYEN 1,BANDAR BARU WANGSA MAJU",53300,Wil. Persekutuan,Kuala Lumpur,03-4143 1402,3.20204,101.734,false
14,JALAN SULTAN,"123, JALAN SULTAN",50000,Wil. Persekutuan,Kuala Lumpur,03-2031 4013,3.14526,101.699,false
15,MAHKOTA PARADE,"G8, MAHKOTA PARADE,JALAN TAMAN",75000,Melaka,Melaka,06-282 9499,2.18855,102.25,true
16,"SS2,PJ","NO19, JALAN SS2/64,",47300,Selangor,Selangor,03-7877 6221,3.11869,101.62,false
17,IPOH PARADE,"G39A, IPOH PARADE,105, JALAN SULTAN ABDUL JALIL,GREENTOWN",30450,Perak,Perak,05-2432 563,4.59576,101.09,true
18,KELANA JAYA,"NO. 14, JALAN SS6/3,KELANA JAYA",47301,Selangor,Selangor,03-7804 6819,3.10506,101.6,false
19,CHERAS LEISURE MALL,"LOT LG 8&9, CHERAS LEISURE MALL,JALAN MANIS DUA,TAMAN SEGAR, CHERAS",56100,Wil. Persekutuan,Kuala Lumpur,03-9132 2468,3.09094,101.742,false
20,TAIPAN USJ,"14, JALAN USJ 10/1",47600,Selangor,Selangor,03-5632 9293,3.04792,101.585,true
22,1 UTAMA SHOPPING CENTRE,"LOT G143A,GF,1UTAMA SHOPPING CENTRE,NO. 1, LEBUH BANDAR UTAMA,BANDAR UTAMA",47800,Selangor,Selangor,0377261916,3.14899,101.616,true
24,SPECTRUM SHOPPING MALL,"LOT G03, GF, SPECTRUM SHOPPING MALL,JALAN WAWASAN AMPANG 4/2,BANDAR BARU AMPANG",68000,Selangor,Selangor,03-4270 0561,3.14616,101.765,false
25,SELAYANG MALL,"LG20-23,LG,SELAYANG MALL,JALAN SU 9,TAMAN SELAYANG UTAMA",68100,Selangor,Selangor,03-6136 6962,3.23733,101.644,false
26,AEON BUKIT RAJA,"F45&F46,1ST FLR,BKT RAJA SHOPNG CTR,PERSIARAN BUKIT RAJA 2,BANDAR BARU, KLANG",41150,Selangor,Selangor,03-3341 2353,3.06084,101.472,false
27,SEREMBAN TERMINAL 1,"LOT 1 TERMINAL 1 SHOPPING PLAZA,20-B JALAN LINTANG",70000,Negeri Sembilan,Negeri Sembilan,06-761 8495,2.7225,101.937,false
28,Guardian Angsana Mall Ipoh,"LOT G1 & G2, GROUND FLOOR,GREENTOWN SHOPPING MALL,JALAN HOSPITAL",30450,Perak,Perak,05-242 2363,4.60318,101.094,false
29,IOI MALL PUCHONG,"G31 & G32, GROUND FLOOR,IOI MALL, BANDAR PUCHONG JAYA,PUCHONG",47100,Selangor,Selangor,0358829000,3.04606,101.619,true
30,PLAZA METRO KAJANG,"LOT LG19-21, LOWER GROUND FLOOR,PLAZA METRO KAJANG, SECTION 7,JALAN TUN ABDUL AZIZ",43000,Selangor,Selangor,03-8734 4230,2.99118,101.789,false
32,GUARDIAN GIANT ULU KELANG,"LOT SG08&SG10,GIANT HYPERMARKET,LOT NO 13793 & 13796 JALAN CHANGKAT,TAMAN PERMATA",53300,Wil. Persekutuan,Kuala Lumpur,03-4101 2217,3.2076,101.751,false
33,CENTRAL SQUARE SG PETANI,"G35-G37, GROUND FLOOR,CENTRAL SQUARE,23, JALAN KG. BARU",8000,Kedah,Kedah,04-421 1153,5.63648,100.488,true
34,THE MINES SHOPPING FAIR,"LOT 1.30&1.36,THE MINES SHOPPING,JLN DULANG,THE MINES RESORT CITY",43300,Selangor,Selangor,03-8948 9892,3.02789,101.718,false
35,SUNWAY PYRAMID,"LG 2.06 Sunway Pyramid,,No 3, Jalan PJS 11/15, Bandar Sunway,,Subang Jaya",46150,Selangor,Selangor,0374928115,3.07325,101.607,true
36,KLIA SEPANG,"SAT C03,SATELLITE BUILDING,KLIA",43900,Selangor,Selangor,03-8787 2680,2.75414,101.705,false
37,SURIA KLCC,"LOT C21B CONCOURSE AREA,SURIA KLCC,KUALA LUMPUR CITY CENTRE",50088,Wil. Persekutuan,Kuala Lumpur,03-2382 0208,3.15727,101.712,true
39,SHAH ALAM MALL,"LG6,LOWER GR FLR,SHAH ALAM MALL,2 JLN TENGKU AMPUAN ZABEDAH E9/E,SEKSYEN 9",40100,Selangor,Selangor,03-5510 1525,3.08463,101.523,false
44,AMPANG POINT,"G07, GROUND FLOOR,AMPANG POINT SHOPPING CENTRE,JALAN MAMANDA 3",68000,Selangor,Selangor,03-4252 9697,3.15784,101.751,true
45,"GUARDIAN GIANT PLENTONG, JB","LOT B8-13, GIANT HYPERMARKET,JALAN MASAI LAMA,MUKIM PLENTONG",81750,Johor,Johor,073519630,1.52828,103.816,true
46,"SECTION 14, PJ","NO. 6B-1, JALAN 14/20,SECTION 14",46100,Selangor,Selangor,03-7958 8362,3.10959,101.636,false
48,BANGI UTAMA SHOPPING CENTRE,"L20,GF BANGI UTAMA SHOPPING COMPLEX,NO. 1, JALAN MEDAN BANGI,OFF PERSIARAN KEMAJUAN, SEKSYEN 6",43650,Selangor,Selangor,0389205820,2.9529101,101.7545638,true
49,DESA SRI HARTAMAS,"8 & 10, GROUND FLOOR,JALAN 24/70A,DESA SRI HARTAMAS",50480,Wil. Persekutuan,Kuala Lumpur,03-6201 1930,3.16351,101.651,true
50,"SECTION 8, PJ","LOT NO.15, GROUND FLOOR,JALAN 8/1E",46050,Selangor,Selangor,03-7960 4194,3.1002,101.641,false
51,SEA PARK,"41, JALAN 21/17,SEA PARK",46300,Selangor,Selangor,03-7876 0212,3.10997,101.622,false
52,TAMAN DANAU DESA,"7-0-10, JALAN 3/109F,TAMAN DANAU DESA",58100,Wil. Persekutuan,Kuala Lumpur,03-7987 0272,3.10003,101.687,false
53,PLAZA WAWASAN KOTA KINABALU,"NO 2-1-15B, LEVEL 1, GROUND FLOOR,PLAZA WAWASAN,LORONG PLAZA WAWASAN",88000,Sabah,Sabah,088-246 342,5.97343,116.068,false
54,GUARDIAN GIANT SENAWANG,"LOT NO B12-B14, GROUND FLOOR,GIANT HYPERMARKET SENAWANG,LOT 1571,JLN SENAWANG, MUKIM AMPANGAN",70450,Negeri Sembilan,Negeri Sembilan,0166791928,2.70203,101.985,true
55,KL SENTRAL,"LOT 1 & 2, LEVEL 1,KL SENTRAL TRAIN STATION",50470,Wil. Persekutuan,Kuala Lumpur,0322601102,3.13479,101.686,true
57,KOMPLEKS BUKIT JAMBUL,"3A-G-22B, KOMPLEKS BUKIT JAMBUL,JALAN RUMBIA",11900,Pulau Pinang,Pulau Pinang,04-642 1623,5.33409,100.291,false
58,JALAN BUKIT BINTANG,"LOT NO 89 & 91,JALAN BUKIT BINTANG",55100,Wil. Persekutuan,Kuala Lumpur,03-2145 7553,3.14568,101.71,false
59,GURNEY PLAZA,"NO. 170-B1-39, PLAZA GURNEY,PERSIARAN GURNEY",80250,Johor,Pulau Pinang,04-226 5016,5.43796,100.31,false
60,GUARDIAN GIANT STADIUM SHAH ALAM,"LOT NO. B10, B11 & B12,GIANT HYPERMARKET STADIUM SHAH ALAM,LOT 2, PERSIARAN SUKAN, SECTION 13",40100,Selangor,Selangor,0355119041,3.08401,101.549,true
61,GUARDIAN GIANT LEISURE MALL JOHOR,"GROUND FLOOR, PELANGI LEISURE MALL,NO. 148, JALAN SERAMPANG,TAMAN PELANGI",80400,Johor,Johor,07-334 9151,1.48374,103.774,false
62,"IOI MALL, KULAI","NO G-31/32/65/66 GROUND FLOOR,IOI MALL,LEBUH BANDAR UTAMA,BANDAR PUTRA",81000,Johor,Johor,075989453,1.64813,103.627,false
63,PLAZA ANGSANA,"LOT NO. L1.35, LEVEL 1,BANGUNAN PLAZA ANGSANA,PUSAT BANDAR TAMPOI",81200,Johor,Johor,07-236 6013,1.49626,103.707,false
64,"LUCKY GARDEN, BANGSAR","LOT NO. 42, GROUND FLOOR,PERSIARAN ARA KIRI,LUCKY GARDEN, BANGSAR",59100,Wil. Persekutuan,Kuala Lumpur,03-2094 8544,3.1282,101.669,false
65,"GUARDIAN GIANT TAMPOI, JB","LOT A7, GIANT HYPERMARKET TAMPOI,LOT 54, JALAN SKUDAI,TAMPOI",81200,Johor,Johor,07-238 4021,1.49905,103.7,false
66,AEON TAMAN UNIVERSITY,"UG01, UPPER GROUND FLOOR,TAMAN UNIVERSITY SHOPPING CENTRE,JLN PENDIDIKAN 1, TAMAN UNIVERSITY",81300,Johor,Johor,07-521 2418,1.54252,103.629,false
67,MID POINT PANDAN INDAH,"G15A, GROUND FLOOR,MID POINT SHOPPING CENTRE,JLN PANDAN INDAH, 1/25 PANDAN INDAH",55100,Wil. Persekutuan,Kuala Lumpur,03-9274 1258,3.13248,101.753,false
68,"PANDAN PERDANA, CHERAS","NO. 1, JALAN PANDAN PERDANA 4/5,PANDAN PERDANA",55300,Wil. Persekutuan,Kuala Lumpur,03-9282 1458,3.11967,101.743,false
69,GREAT EASTERN MALL,"LOT 3B, LOWER GROUND FLOOR,GREAT EASTERN MALL,NO. 303, JALAN AMPANG",50450,Wil. Persekutuan,Kuala Lumpur,03-4253 4508,3.16023,101.737,true
70,"DESA AMAN PURI, KEPONG","NO. 2-28A, GROUND FLOOR,JALAN DESA 1/1,DESA AMAN PURI",52100,Wil. Persekutuan,Kuala Lumpur,03-6274 5487,3.21103,101.616,false
71,SRI DAMANSARA,"NO. 13, JALAN TANJUNG SD 13/1,BANDAR SRI DAMANSARA",52200,Wil. Persekutuan,Kuala Lumpur,03-6274 6530,3.1884,101.605,false
72,"JLN BURHANUDDIN HELMI,TMN TUN","NO. 134, GROUND FLOOR,JALAN BURHANUDDIN HELMI,TMN TUN DR ISMAIL",60000,Wil. Persekutuan,Kuala Lumpur,03-7722 3832,3.15307,101.623,false
73,GUARDIAN GIANT KUANTAN,"LOT B4, GF, GIANT HYPERMARKET,LOT 5197, JLN TANAH PUTIH,SEKSYEN 124, MUKIM KUANTAN",25150,Pahang,Pahang,09-513 9311,3.79224,103.31,true
74,GUARDIAN GIANT KLANG,"LOT B5, GIANT HYPERMARKET KLANG,BANDAR BUKIT TINGGI 1,JLN LANGAT, KLANG",41200,Selangor,Selangor,03-3323 5642,3.00973,101.433,true
75,"KINRARA, PUCHONG","36A, JALAN TK1/11A,TAMAN KINRARA, SEKSYEN 1,BATU 7 1/2, JALAN PUCHONG",58200,Wil. Persekutuan,Kuala Lumpur,03-8070 5453,3.0635,101.648,false
76,PUCHONG PRIMA,"F-01-08, BLOCK F, JALAN PRIMA 5/3,PERSIARAN PRIMA UTAMA,TAMAN PUCHONG PRIMA",47100,Selangor,Selangor,03-8062 2921,2.99963,101.596,false
79,PUCHONG JAYA,"NO.3, GROUND FLOOR,JALAN KENARI 1,BANDAR PUCHONG JAYA",47100,Selangor,Selangor,03-5882 8723,3.0456,101.621,false
80,TAMAN PUTRA,"NO.8,JALAN BUNGA TANJUNG 8,,TAMAN PUTRA",68000,Selangor,Selangor,03-4296 8672,3.12083,101.762,false
83,BANDAR BARU SUNGEI BULOH,"NO 368 JALAN 1A/3,BANDAR BARU SUNGEI BULOH,SEKSYEN U20",47000,Selangor,Selangor,03-6156 5120,3.21098,101.566,false
84,SRI GOMBAK,"NO. 17 GROUND FLOOR,JALAN SG 1/6,TAMAN SRI GOMBAK, BATU CAVES",68100,Wil. Persekutuan,Kuala Lumpur,03-6188 0620,3.23767,101.699,false
86,JALAN TUNKU IBRAHIM ALOR SETAR,57 & 59 JLN TUNKU IBRAHIM,5000,Kedah,Kedah,04-735 3418,6.11748,100.37,false
87,PANDAN JAYA,"NO 39 & 41,JALAN PANDAN JAYA 3/3",55100,Wil. Persekutuan,Kuala Lumpur,03-9281 1004,3.13569,101.741,false
88,ETONIC RAWANG,"G2, GROUND FLOOR, WISMA ETONIC,NO 7, PERSIARAN BANDAR RAWANG,PUSAT BANDAR RAWANG",48000,Selangor,Selangor,03-6092 2572,3.32088,101.577,false
90,TANJUNG BUNGAH,"NO 1-G, JALAN SUNGAI KELIAN,TANJUNG BUNGAH",11200,Pulau Pinang,Pulau Pinang,04-890 0779,5.46459,100.292,false
91,SRI RAMPAI,"2A, JALAN 46/26,TAMAN SRI RAMPAI",53300,Wil. Persekutuan,Kuala Lumpur,03-4143 8652,3.19563,101.733,false
92,ISLAND PLAZA,"LOT G10 & G11,GROUND FLOOR,ISLAND PLAZA,NO.118, JALAN TANJUNG TOKONG",10470,Pulau Pinang,Pulau Pinang,04-890 0893,5.45021,100.306,false
95,KOMPLEKS MUTIARA,"NO. 568-G-44, KOMPLEKS MUTIARA,3 1/2 MILES, JALAN IPOH",51200,Wil. Persekutuan,Kuala Lumpur,03-6257 6158,3.18872,101.681,false
97,AEON METRO PRIMA KEPONG,"LOT G25, GROUND FLOOR,JUSCO METRO PRIMA SHOPPING CENTRE,JALAN KEPONG",52100,Wil. Persekutuan,Kuala Lumpur,03-6250 3357,3.21321,101.639,true
98,GUARDIAN GIANT BUKIT ANTARABANSA,"LOT 560 (PT 3429) JALAN WANGSA UKAY,TAMAN WANGSA UKAY,ULU KLANG",68000,Selangor,Selangor,03-4107 0958,3.19206,101.77,false
100,"KOMPLEKS KARAMUNSING, KK","LOT G.01(pt), G.02 & G. 03,",88300,Sabah,Sabah,088-269 414,5.97114,116.075,false
101,"FAJAR COMPLEX, TAWAU","TB330A & TB330B,JALAN MERDEKA 2, FAJAR COMPLEX",91000,Sabah,Sabah,089-759 241,4.24534,117.891,true
102,"SATOK, KUCHING","NO. 194K & 194L, GROUND FLOOR,AL-IDRUS COMMERCIAL CENTRE,JALAN SATOK",93400,Sarawak,Sarawak,082-420 176,1.55358,110.331,true
103,GUARDIAN GIANT KELANA JAYA,"LOT F28 & F29, GIANT HYPERMARKET KJ,JALAN PERBANDARAN SS6/4,PUSAT BANDAR KELANA JAYA",47301,Selangor,Selangor,0378041837,3.10321,101.598,false
105,JALAN DUNLOP TAWAU,"TB 254B, GROUND FLOOR,JALAN DUNLOP",91000,Sabah,Sabah,089-758 607,4.24433,117.888,false
108,TAMAN TAS KUANTAN,"LOT A-9, GROUND FLOOR,TAMAN PANDAN PERMAI, JALAN 2/1,KM12, JALAN GAMBANG",25150,Pahang,Pahang,09-539 7817,3.76994,103.233,false
109,JALAN TUN PERAK,"40 & 42,JALAN TUN PERAK",50050,Wil. Persekutuan,Kuala Lumpur,03-2031 4349,3.14889,101.697,true
110,PUTRAJAYA,"PUTRAJAYA PRECINCT 8,BLOCK C-T00-UO1,NO 1, JALAN P8D",62250,Wil. Persekutuan,Kuala Lumpur,03-8888 9149,2.93909,101.683,true
112,JALAN PUTRA ALOR SETAR,"LOT NO 206-A,,SEBERANG JALAN PUTRA",5100,Kedah,Kedah,04-735 5387,6.12514,100.357,false
113,WISMA SEE HUA,"NO. 40, JALAN TUANKU OSMAN,GROUND FLOOR,WISMA SEE HUA",96000,Sarawak,Sarawak,084-323 037,2.29323,111.827,true
114,INTERMARK,"LOT C-18 CONCOURSE FLOOR,,THE INTERMARK,348 JALAN TUN RAZAK",50400,Wil. Persekutuan,Kuala Lumpur,03-2161 0609,3.1615,101.72,true
115,"JALAN BENDAHARA, MELAKA","53A-53B, GROUND & MEZANANINE FLOOR,JALAN BENDAHARA",75100,Melaka,Melaka,06-281 2921,2.19801,102.252,false
117,ENTREPRENEUR PARK,"NO 4, GF, JLN 10/116B,KUCHAI ENTREPRENEUR'S PARK,OFF JALAN KUCHAI LAMA",58100,Wil. Persekutuan,Kuala Lumpur,03-7980 4070,3.09038,101.689,false
118,KOTA BARU MALL,"LOT NO 31, GROUND FLOOR, KB MALL,PT 101 & 102, JALAN HAMZAH,SEKSYEN 16",15050,Kelantan,Kelantan,09-747 8028,6.11749,102.241,true
119,"JALAN ALI, MUAR","NO 31-1 & 31-2, GROUND FLOOR,JALAN ALI",84000,Johor,Johor,06-955 6319,2.04641,102.569,false
120,TAMAN MOLEK,"NO 89, GROUND FLOOR,JALAN MOLEK 3/1,TAMAN MOLEK",81100,Johor,Johor,07-357 0934,1.52294,103.786,false
122,"JLN SIA HER YAM, SEGAMAT","NO. 154, JALAN SIA HER YAM",85000,Johor,Johor,07-931 9598,2.50456,102.823,false
123,BERCHAM IPOH,"NO 277 & 279 (GROUND & FIRST FLOOR),JALAN BERCHAM,TAMAN DESA KENCANA",31400,Perak,Perak,05-547 6767,4.63035,101.127,false
124,JALAN RAHMAT BATU PAHAT,"NO 37, 37-1, 37-2 GROUND FLOOR,JALAN RAHMAT",83000,Johor,Johor,07-432 7914,1.84862,102.932,true
125,TAMAN ENG ANN,"No. 14 & 16, LORONG KASAWARI 8,TAMAN ENG ANN",41150,Selangor,Selangor,03-3343 5408,3.05844,101.46,false
126,"JALAN KOTA, TAIPING","NO 62, 64 & 66, JALAN KOTA",34000,Perak,Perak,05-805 8557,4.85262,100.742,false
128,JALAN PAYAMAS TANGKAK,LOT 1331 JALAN PAYAMAS,84900,Johor,Johor,06-978 6826,2.27012,102.542,false
129,GUARDIAN GIANT KAJANG,"GIANT SUPERSTORE PRIMA SAUJANA,S02 PUSAT BANDAR BARU,KAJANG PRIMA SAUJANA",43000,Selangor,Selangor,03-8733 3857,3.00914,101.803,false
130,E-GATE,"LOT G-17 & G-18, GF,E-GATE,LEBUH TENKU KUDIN 2,BANDAR JELUTONG, GELUGOR",11700,Pulau Pinang,Pulau Pinang,04-659 9952,5.37663,100.316,true
134,CENTRE POINT BANDAR UTAMA2,"LOT G102B & G103, GROUND FLOOR,CENTRE POINT BANDAR UTAMA",47800,Selangor,Selangor,0377266450,3.1378,101.61,true
135,GUARDIAN GIANT BAYAN BARU,"LOT G10 & G11,NO 78 JALAN TENGAH BAYAN BARU,BAYAN LEPAS",11900,Pulau Pinang,Pulau Pinang,04-641 2216,5.32095,100.284,true
136,TSH PARADE LANGKAWI,"NO 4 & 5 GROUND FLOOR TSH PARADE,BATU 3/4 POKOK ASAM",7000,Kedah,Kedah,04-967 2899,6.32728,99.8381,false
137,KLANG SHOPPING CENTRE,"NO G3 & G5,GF KLANG SHOPPING CENTRE,TAMAN UTAMA KLANG",42100,Selangor,Selangor,03-3290 7412,3.07909,101.421,false
138,GUARDIAN GIANT SUNGEI WANG PLAZA,"GIANT SUPERMARKET SUNGAI WANG PLAZA,LB FLOOR SUNGAI WANG PLAZA,JALAN SULTAN ISMAIL",55100,Wil. Persekutuan,Kuala Lumpur,03-2145 8467,3.1449,101.712,false
139,TAMAN MELAKA RAYA,"552 GROUND FLOOR,TAMAN MELAKA RAYA",75000,Melaka,Melaka,06-282 3500,2.18675,102.258,false
140,SECTION 7 SHAH ALAM,"24 JALAN E7/E, SEKSYEN 7,FASA 3A",40000,Selangor,Selangor,03-5512 7898,3.08171,101.492,false
141,JALAN DATO SHEIKH SEREMBAN,NO 10 & 11 JALAN DATO SHEIKH AHMAD,70000,Negeri Sembilan,Negeri Sembilan,06-763 2399,2.72428,101.94,true
142,JALAN TOKONG KAMPAR,"NO 1 & 2, GROUND FLOOR,JALAN TOKONG",31900,Perak,Perak,05-465 9553,4.31319,101.152,false
143,PLAZA SENTOSA JOHOR BAHRU,"LOT 5 & 6, GROUND FLOOR,BLOCK F, PLAZA SENTOSA",80150,Johor,Johor,07-333 2629,1.4927,103.768,false
145,"TAMAN DESA, TEBRAU JB","45, GROUND FLOOR,JLN HARMONIUM 23/14",81100,Johor,Johor,07-359 6471,1.55429,103.796,false
147,SQUARE ONE BATU PAHAT,"G1, G2, G3, GT1 & GT2,LEVEL 1, SQUARE ONE MALL",83000,Johor,Johor,07-432 7322,1.86596,102.949,false
148,"JALAN AH CHEONG, TELOK INTAN","NO. 17, GROUND FLOOR,JALAN AH CHEONG",36000,Perak,Perak,05-621 6146,4.02612,101.019,false
150,GUARDIAN GIANT SOUTHERN CITY,"GROUND FLOOR, SOUTHERN CITY,NO 3, JALAN SURIA 19, TAMAN SURIA,NO 3, JALAN SURIA 19,",81100,Johor,Johor,07-334 4129,1.50406,103.761,false
151,GUARDIAN GIANT SUPERSTORE SANDAKAN,"LOT A5,6&7,GIANT HYPERMARKET SANDAK,LOT 3, JLN IJM BDR UTAMA,BATU 6, OFF JALAN UTARA",9000,Sabah,Sabah,089-218 802,5.86651,118.057,false
153,JALAN CECAWI KOTA DAMASARA,"LOT NO. 43-1, GROUND FLOOR,JALAN CECAWI 6/19A,KOTA DAMANSARA",47810,Selangor,Selangor,03-6141 3602,3.15965,101.574,false
154,TAMAN KERAMAT PERMAI,"NO 15-G, JALAN AU1A/4B,TAMAN KERAMAT PERMAI",54200,Wil. Persekutuan,Kuala Lumpur,03-4256 5103,3.17743,101.738,false
158,"JALAN BUKIT LAGI, KANGAR","NO 32, GF & 1ST FLR,JALAN BUKIT LAGI",1000,Perlis,Perlis,04-976 3771,6.43528,100.194,false
160,"JALAN PEDADA, SIBU","NO 32, GROUND FLOOR,PUSAT PEDADA,JALAN PEDADA",96007,Sarawak,Sarawak,084-312 306,2.31141,111.846,false
161,GUARDIAN BERJAYA TIMES SQUARE (LG FLOOR),"NO LG-06 & LG-07,LOWER GROUND FLOOR,BERJAYA TIMES SQUARE",55100,Wil. Persekutuan,Kuala Lumpur,0321442908,3.14215,101.711,true
162,"JALAN NIAGA, KOTA TINGGI","NO 22 GROUND FLOOR,JALAN NIAGA 1,BANDAR KOTA TINGGI",81900,Johor,Johor,07-882 1719,1.73001,103.901,true
163,LANGKAWI FAIR SHOPPING MALL,"LOT GF2A PHASE 1, GROUND FLOOR,LANGKAWI FAIR SHOPPING MALL,JALAN PERSIARAN PUTRA",7000,Kedah,Kedah,04-966 0807,6.31011,99.8561,false
165,GUARDIAN TAMAN PUSAT PERDAGANGAN PONTIAN,"NO, 34 GROUND FLOOR,JALAN DELIMA,PONTIAN COMMERCIAL CENTRE",82000,Johor,Johor,076860809,1.47838,103.389,false
166,"JALAN KUNDANG, BATU PAHAT","NO 32 GROUND FLOOR,JALAN KUNDANG 1",83000,Johor,Johor,07-432 0779,1.8651,102.94,false
168,"AUTO CITY, PRAI","1820-G1 JALAN PERUSAHAAN AUTO CITY,NORTH-SOUTH HIGHWAY JURUINTERCHANGE,PRAI",13600,Pulau Pinang,Pulau Pinang,04-507 2863,5.33782,100.429,true
169,"JLN SULTAN ISMAIL, TERENGGANU","16A, GROUND FLOOR,,JALAN SULTAN ISMAIL,",20200,Terengganu,Trengganu,09-622 0276,5.33098,103.133,false
170,"QUEENSBAY MALL, PENANG","100-LG-72, Queensbay Mall,Persiaran Bayan Indah",11900,Pulau Pinang,Pulau Pinang,04-646 6508,5.33421,100.307,true
171,"FAJAR LAHAD DATU, SABAH","LOTS NO MLDS 6584 & MLDS 6585,GROUND FLOOR, AIRPORT PLAZA,FAJAR LAHD DATU",91100,Sabah,Sabah,089-883 812,5.02867,118.327,false
172,"WISMA MERDEKA, KOTA KINABALU","LOTS NO BG64-BG67 & BG72,GRD FLOOR WISMA MERDEKA PHASE 2,JALAN TUN RAZAK",88000,Sabah,Sabah,088-237 893,5.98582,116.075,false
173,"JALAN SIMPANG 3, KUCHING","NO 27, JALAN SIMPANG TIGA,PANOVEL COMMERCIAL CENTRE",93300,Sarawak,Sarawak,082-258 300,1.54067,110.356,false
174,"JALAN KEPONG, KL","NO 30&32 GRD FLOOR,JLN METRO PERDANA 8 TMN USAHAWAN,FORTUNE CENTRE JLN KEPONG",52100,Wil. Persekutuan,Kuala Lumpur,03-6259 5654,3.21482,101.643,false
175,"SHAH ALAM, SECTION 25","LOT NO. 8, GROUND FLOOR,JALAN MURNI 25/61,,SEKSYEN 25, TAMAN SRI MUDA,",40200,Selangor,Selangor,03-5121 8955,3.03247,101.536,false
176,SEMPORNA SEAFRONT RESORT,"25 GROUND FLOOR,SEMPORNA SEAFRONT RESORT TOWNSHIP,JALAN KASTAM",91307,Sabah,Sabah,089-784 766,4.47975,118.613,false
177,BANDAR LAHAD DATU,"Lot No.275, GF & 1st Floor,,Sri Perdana, Phase 3,,Jalan Silam,",91100,Sabah,Sabah,089863378,5.027153489842425,118.29426211217117,false
178,TAMAN SUNGAI KAPAR INDAH,"NO. 25, JALAN SUNGAI KAPAR INDAH 3K,JALAN KAPAR",42209,Selangor,Selangor,03-3290 1709,3.0948,101.384,false
179,TAMAN SRI ANDALAS,"NO. 49 GROUND FLOOR,JLN SRI SARAWAK,20A,TAMAN SRI ANDALAS",41200,Selangor,Selangor,03-3324 1310,3.01598,101.441,false
180,KAPAR TOWN,"NO. 200, GROUND FLOOR,JALAN BESAR/KU 13,,PEKAN KAPAR",42200,Selangor,Selangor,03-3250 2708,3.1383,101.372,false
181,DATARAN PAHLAWAN MELAKA,"LOT BW05 DATARAN PAHLAWAN,MELAKA MEGAMALL,JALAN MERDEKA, BANDAR HILIR",75000,Melaka,Melaka,06-281 7148,2.19052,102.251,false
182,BANDAR SUNGAI LONG,"13 JALAN SL 1/3,BANDAR SUNGAI LONG",43000,Selangor,Selangor,03-9074 0186,3.04065,101.794,false
183,"JALAN ISMAIL, MERSING","BLOCK E LOT NO 451,GROUND FLOOR, JALAN ISMAIL",86800,Johor,Johor,07-798 2584,2.42983,103.837,false
184,SUNWAY METRO,"UNIT 2-G, GROUND FLOOR,,JALAN PJS 11/28A, PJS 11,,SUNWAY METRO, BANDAR SUNWAY,",46150,Selangor,Selangor,03-5632 7471,3.07279,101.61,false
185,KLUANG PARADE JB,"LOT GROUND 21,22,23,24,25 & 25 (A),KLUANG PARADE,NO 2 JALAN SENTUL",86000,Johor,Johor,07-771 6364,2.03622,103.32,false
187,ALAMANDA PUTRAJAYA,"32 GROUND FLOOR,ALAMANDA PUTRAJAYA SHOPPING CENTRE,JALAN ALAMANDA PRECINCT 1",62000,Wil. Persekutuan,Kuala Lumpur,0388811387,2.93935,101.711,true
188,BIZ AVENUE SEREMBAN 2,"LOT NO 14G GROUND FLOOR,JALAN S2 B18,BIZ AVENUE SEREMBAN 2",70300,Negeri Sembilan,Negeri Sembilan,066016566,2.69815,101.913,false
190,PJ NEW TOWN,"NO 8, GROUND FLOOR,JALAN 52/18,NEW TOWN CENTRE",46200,Selangor,Selangor,03-7957 2986,3.09871,101.645,false
191,GUARDIAN GIANT SUPERSTORE NILAI,"LOT G34, G35, G38, G39,GIANT SUPERSTORE NILAI,PT6367, JALAN BBN 3/1, PUTRA NILAI",71800,Negeri Sembilan,Negeri Sembilan,06-799 1661,2.81211,101.791,true
192,GUARDIAN TARGET SRI KLUANG,"LOT G8, GIANT SUPERSTORE SRI KLUANG,NO1 JALAN 6,TAMAN SRI KLUANG",86000,Johor,Johor,07-772 4223,2.02813,103.299,false
193,GUARDIAN GIANT HYPERMARKET BDR KINRARA,"LOT F7, F8 & F9,,LOT 449, JALAN BK 5A/1,,BANDAR KINRARA",47100,Selangor,Selangor,0380711131,3.04954,101.646,true
194,GUARDIAN GIANT KOTA DAMANSARA,"LT F40 GIANT HYPERMARKET KOTA DSARA,16 JALAN PJU 5/1,KOTA DAMANSARA, PJU5",47810,Selangor,Selangor,03-6142 2046,3.15603,101.596,false
195,GUARDIAN GIANT KUALA TERENGGANU,"LOT G09-G16,,H.S(D) 6971, LOT PT 1485,,MUKIM CABANG TIGA,",21100,Terengganu,Trengganu,09-622 7081,5.31072,103.128,true
196,GUARDIAN NSK MUAR,"LOT F10 - F11, GIANT HYPERMARKET,LOT 6530, TANJUNG AGAS, MUKIM KESAS,DAERAH MUAR",84000,Johor,Johor,06-951 6587,2.05276,102.567,false
197,Guardian Sunway Carnival Prai,"LG31A-LG32,LG, SUNWAY CARNIVAL MALL,NO 3068 JALAN TODAK,PUSAT BANDAR SEBERANG JAYA",13700,Pulau Pinang,Pulau Pinang,043987948,5.39927,100.398,true
199,PARKCITY MALL BINTULU,"UNIT 08,09 & 10,LEVEL 1 PARKCITY MALL,JALAN TUN AHMAD ZAIDI",97008,Sarawak,Sarawak,086-334 622,3.18004,113.037,false
200,TAMAN KOSAS AMPANG,"LOT NO 5 & 7, GROUND FLOOR,JALAN KOSAS 1/2,,TAMAN KOSAS",68000,Selangor,Selangor,0342959051,3.14583,101.771,true
201,PEKAN SIMPANG KUALA ALOR SETAR,"LOT NO 60 & 61, GROUND FLOOR,JALAN PSK 1, PEKAN SIMPANG KUALA",5400,Kedah,Kedah,04-771 5709,6.09972,100.364,false
202,GUARDIAN GIANT CITY MALL KOTA KINABALU,"Lot M-0-77 (S014), Ground Floor City Mall, Jalan Lintas 88300 Kota Kinabalu Sabah",88300,Sabah,Sabah,088-448 260,5.961414064157708, 116.09734713951019,false
203,GUARDIAN GIANT KEPAYAN KOTA KINABALU,"GIANT SUPERSTORE KEPAYAN,CENTRAL SHOPPING PLAZA,GROUND FLOOR,JALAN BANJARAN, KEPAYAN RIDGE",88200,Sabah,Sabah,088-231 972,5.95094,116.072,false
205,JITRA MALL KEDAH,"LOT NO :G-38 & G-39,GROUND FLOOR, JITRA MALL",6000,Kedah,Kedah,04-917 7817,6.26124,100.419,false
206,"JALAN LUMUT, PEKAN SITIAWAN","LOT NO 31, GROUND FLOOR,JALAN LUMUT",32000,Perak,Perak,05-691 3331,4.21636,100.694,false
207,SHAW CENTREPOINT KLANG,"LG 17 & 18, TINGKAT LOWER GROUND,KOMPLEK SHAW CENTREPOINT,JALAN RAJA HASSAN",41400,Selangor,Selangor,03-3344 0578,3.04853,101.448,false
208,PARIT RAJA BATU PAHAT,"LOT NO 1 & 2 GROUND FLOOR,JALAN CEMPAKA 2,TAMAN CEMPAKA BIRU, PARIT RAJA",86400,Johor,Johor,07-453 1501,1.86557,103.115,false
210,BANDAR BARU RAWANG,"LOT NO 15 GF,JALAN BANDAR BARU RAWANG 10,BANDAR BARU RAWANG",48000,Selangor,Selangor,03-6091 0425,3.31892,101.578,false
213,"TAMAN UNGKU TUN AMINAH,JOHOR","LOT 7, JALAN PENDEKAR 16, TAMAN UNGKU TUN AMINAH",81300,Johor,Johor,075586731,1.51912,103.66,false
214,GUARDIAN JALAN RAJA JALIL KUALA SELANGOR,"LOT NO 28, GROUND FLOOR,,JALAN RAJA JALIL",45000,Selangor,Selangor,03-3289 8188,3.34074,101.249,false
215,"STAR PARADE, ALOR SETAR","LOT NO. 34, 35 & 36, GROUND FLOOR,,888, KOMPLEKS STAR PARADE,,JALAN TELUK WANJAH,",5200,Kedah,Kedah,04-734 0314,6.12298,100.374,false
216,PEKAN BATU GAJAH,"3 GROUND FLOOR,JALAN PEJABAT POS",31000,Perak,Perak,05-366 6933,4.47179,101.042,false
217,PASIR PUTEH,"PT 483, TINGKAT BAWAH,,DEPAN STESEN MINYAK ESSO,,JALAN KOTA BAHRU,",16800,Kelantan,Kelantan,09-786 2059,5.83625,102.408,false
218,GUARDIAN GIANT PUTATAN,"GIANT HYPERMARKET PUTATAN,,NO.CL 215012883, KM11 JLN PUTATAN,,PUTATAN RAILWAY STATION",88869,Sabah,Sabah,088-772 831,5.89325,116.049,false
221,PEKAN TEMERLOH,"NO. 25, GROUND FLOOR,,JALAN TENGKU BAKAR",28000,Pahang,Pahang,09-296 0813,3.45084,102.42,false
223,BANDAR SETIA ALAM,"9-1-1, GROUND FLOOR,,JALAN SETIA PRIMA RU 13/R,,SETIA ALAM, SEKSYEN U13,",40170,Selangor,Selangor,03-3343 7529,3.10065,101.444,false
224,"DATARAN TEMPLER, SELAYANG","NO. 18, GROUND FLOOR,,JALAN 2/12, DATARAN TEMPLER,,BANDAR BARU SELAYANG,",68100,Selangor,Selangor,03-6137 3580,3.25678,101.658,false
225,BOULEVARD SHOPPING MALL,"LOT G-B-2 & G-B-3A,,GROUND FLOOR,,BOULEVARD SHOPPING MALL,",93250,Sarawak,Sarawak,082464580,1.50968,110.336,true
226,SEKSYEN 28 SHAH ALAM,"NO 15G, GROUND FLOOR,JALAN PULAU KEMPAS 28/3,SEKSYEN 28, TAMAN ALAM MEGAH",40400,Selangor,Selangor,03-5192 9359,3.00724,101.569,false
228,KINGFISHER KOTA KINABALU,"NO 2 GROUND FLOOR,BLOCK D, LORONG PLAZA KINGFISHER 6,PLAZA KINGFISHER",88450,Sabah,Sabah,088-385 371,6.01659,116.123,false
229,AYER ITAM,"NO 1228B, GROUND FLOOR,DESA PERMATA, JALAN PAYA TERUBONG,AYER ITAM",11060,Pulau Pinang,Pulau Pinang,04-828 2946,5.39431,100.277,false
231,BANDAR BARU BANGI,"LOT NO. 2, GROUND FLOOR,,JALAN 3/69, SEKSYEN 3,,BANDAR BARU BANGI",43650,Selangor,Selangor,03-8920 3790,2.93842,101.776,false
233,BERJAYA MEGAMALL,"LOT G.53A-G57,GROUND FLOOR,,BERJAYA MEGAMALL,JALAN TUN ISMAIL,,SRI DAGANGAN",25000,Pahang,Pahang,09-508 3875,3.81585,103.33,false
234,"TANJUNG AGAS,K-MART MUAR","NO. 9A, GROUND FLOOR, K-MART,LOT 3153, JALAN KESANG,,TANJUNG AGAS",84000,Johor,Johor,06-953 7441,2.06281,102.556,false
235,BANDAR BARU AMPANG,"NO.20,GROUND FLOOR,,JALAN WAWASAN AMPANG 2/3,,BANDAR BARU AMPANG",68000,Selangor,Selangor,03-4297 5260,3.14555,101.768,false
236,SEMENYIH TOWN,"47-G, GF,JALAN SEMENYIH SENTRAL 3,SEMENYIH SENTRAL",43500,Selangor,Selangor,03-8724 6651,2.94488,101.845,false
237,"KEMAMAN, TERENGGANU","LOT NO K-721 GROUND FLOOR,JALAN SULAIMANI,,CHUKAI",24000,Terengganu,Trengganu,09-859 2104,4.23333,103.424,false
239,"JERTEH, TERENGGANU","NO. G-244,GROUND FLOOR,JALAN TUAN HITAM,",22000,Terengganu,Trengganu,09-690 3585,5.73766,102.495,false
242,PJ OLD TOWN,"LOT NO. 100, GROUND FLOOR,,JALAN OTHMAN 1/14",46000,Selangor,Selangor,03-7784 2170,3.08673,101.647,false
243,BIDOR PERAK,"NO 3 PT2319, GROUND FLOOR,JALAN PERSATUAN",35500,Perak,Perak,05-434 0030,4.11324,101.287,false
244,TAMAN PEKAKA SUNGAI DUA,"NO 15 GROUND FLOOR LEBUH PEKAKA 1,TAMAN PEKAKA,SUNGAI DUA",11700,Pulau Pinang,Pulau Pinang,04-658 6034,5.34944,100.296,false
245,LABIS TOWN JOHORE,"75 GROUND FLOOR,JALAN SEGAMAT,TAMAN ORKID BARU",85300,Johor,Johor,07-925 5087,2.3966,103.019,false
248,GUARDIAN GIANT KLANG SENTRAL,"LT F22 NO2 PERSIARAN KLANG SENTRAL4,TAMAN KLANG SENTRAL,BUKIT RAJA, MERU",41050,Selangor,Selangor,0333416210,3.10734,101.441,false
252,BATU PAHAT MALL BATU PAHAT,"LOT G71 & G72 BATU PAHAT MALL,JALAN KLUANG",83000,Johor,Johor,07-432 7235,1.86364,102.962,false
253,BRINCHANG TOWN,"NO 15 & 16, GROUND FLOOR,JALAN BESAR,BRINCHANG",39100,Pahang,Pahang,05-491 1585,4.49208,101.389,false
254,TAMAN SEJATI INDAH SG PETANI,"NO 13 GROUND FLOOR,JALAN PERMATANG GEDUNG,TAMAN SEJATI INDAH",8000,Kedah,Kedah,04-431 8032,5.61314,100.483,false
255,VISTA MAGNA,"NO 16 GROUND FLOOR VISTA MAGNA,JALAN PRIMA",52100,Wil. Persekutuan,Kuala Lumpur,03-6258 7971,3.21345,101.643,false
256,PEKAN SUNGAI BESAR,"NO 19E GROUND FLOOR,JALAN MAHSURI",45300,Selangor,Selangor,03-3224 3992,3.67441,100.986,false
257,TAMAN DAYA JOHOR BARU,"NO 36 GROUND FLOOR,JALAN SAGU 8,TAMAN DAYA",81100,Johor,Johor,07-353 7951,1.54482,103.763,false
258,TAMAN INTAN KLUANG,"NO.46, GROUND FLOOR,,JALAN INTAN 2/1,TAMAN INTAN",86000,Johor,Johor,07-774 4398,2.01822,103.301,false
259,KOTA MASAI PASIR GUDANG,"NO 1, GROUND FLOOR,,JALAN BACANG 36,KOTA MASAI",81700,Johor,Johor,07-256 2575,1.4908,103.927,false
260,"TAMAN IMPIAN EMAS, SKUDAI JB","NO. 59, GROUND FLOOR,,JALAN IMPIAN EMAS 3,,TAMAN IMPIAN EMAS,",81300,Johor,Johor,07-559 9220,1.54046,103.684,false
261,"MESRA MALL, KERTEH","No. 34,35 & 35A, GROUND FLOOR,MESRA MALL,",24300,Terengganu,Trengganu,09-864 1113,4.441,103.448,false
262,BANDAR DAMAI PERDANA,"NO. 21, GROUND FLOOR,,JALAN DAMAI PERDANA 1/9B,BANDAR DAMAI PERDANA",56000,Wil. Persekutuan,Kuala Lumpur,03-9105 6521,3.04572,101.74,false
263,JALAN TUN ISMAIL KUANTAN,"NO. 23 GROUND FLOOR,JALAN TUN ISMAIL",25000,Pahang,Pahang,09-514 9859,3.81037,103.324,false
264,BANDAR PUTERI PUCHONG,"NO. 27, GROUND FLOOR,JALAN PUTERI 2/1,BANDAR PUTERI PUCHONG",47100,Selangor,Selangor,03-8068 1260,3.02444,101.617,false
266,PEKAN SARIKEI SARAWAK,NO 23D JALAN ABDUL RAHMAN,96100,Sarawak,Sarawak,084-654 811,2.13108,111.518,false
267,JALAN SUDIRMAN TEMERLOH,"NO 32 GROUND FLOOR,JALAN SUDIRMAN 1,BANDAR BARU SERI SEMANTAN",28000,Pahang,Pahang,09-296 6869,3.44954,102.416,false
268,MEDAN IDAMAN,"32 GROUND FLOOR,JALAN 2/21D MEDAN IDAMAN",53000,Wil. Persekutuan,Kuala Lumpur,03-4024 6186,3.213,101.712,false
269,TAMAN JOHOR JAYA JOHOR BAHRU,"NO 58 & 60, GROUND FLOOR,JALAN DEDAP 4,TAMAN JOHOR JAYA",81100,Johor,Johor,07-354 2015,1.54143,103.804,false
271,GUARDIAN GIANT DESA PETALING,"LOT NO 1-02, PLAZA SALAK PARK,NO 2 JALAN 1/125E,TAMAN DESA PETALING",57100,Wil. Persekutuan,Kuala Lumpur,03-9056 2944,3.08287,101.702,false
273,MEGALONG KOTA KINABALU,"LOT G-088A GRD FLR BLK E,MEGALONG MALL,DONGGONGON NEW TOWNSHIP PHASE 3",89500,Sabah,Sabah,015-4840 2218,5.91281,116.104,false
275,ONE BORNEO KOTA KINABALU,"LOT NO G-349 GROUND FLOOR,ONE BORNEO HYPERMALL,JALAN SULAMAN",88400,Sabah,Sabah,088-447 642,6.03621,116.13,true
277,MIDVALLEY MEGAMALL,"LOT NO F-029C, MIDVALLEY MEGAMALL,MIDVALLEY CITY,LINGKARAN SYED PUTRA",59200,Wil. Persekutuan,Kuala Lumpur,0322834864,3.11862,101.677,false
278,"MEDAN SETIA, BUKIT DAMANSARA","NO.59, GROUND & MEZZANINE FLOOR,,JALAN MEDAN SETIA 1,,BUKIT DAMANSARA",50490,Wil. Persekutuan,Kuala Lumpur,03-2095 2927,3.15029,101.653,false
280,GUARDIAN GIANT BREM MALL,"G-19 LEVEL G,BREM MALL,JALAN KEPONG",52000,Wil. Persekutuan,Kuala Lumpur,03-6258 4088,3.20458,101.668,false
282,JALAN GAYA KOTA KINABALU,"LOT NO 99, GROUND FLOOR,JALAN GAYA",88000,Sabah,Sabah,088-269 461,5.98362,116.077,false
283,GUARDIAN GIANT HYPERMARKET NUSA BESTARI,"LOT F22 1ST FLOOR,GIANT HYPERMARKET NUSA BESTARI,NO1 JLN BESTARI 7/2 TMN NUSA BESTAR",81300,Johor,Johor,07-235 7688,1.48342,103.665,false
284,GUARDIAN GIANT HYPER SERI KEMBANGAN,"LOT F20, 1ST FLOOR,JLN PUTRA PERMAI,BANDAR PUTRA PERMAI",43300,Selangor,Selangor,03-8943 0154,2.9836,101.663,false
285,GUARDIAN GIANT HYPERMARKET BANTING,"LOTG53,GIANT HYPERMARKET BANTING,LOT555 PERSIARAN KOTA SERI LANGAT,KOTA SERI LANGAT",42700,Selangor,Selangor,03-3180 1654,2.83705,101.529,false
286,GUARDIAN GIANT HYPER KEMUNING UTAMA,"LT F07,1ST FLR GIANT KEMUNING UTAMA,NO 3 JALAN KEMUNING PRIMA E33/E,KEMUNING UTAMA, SEKSYEN 33",40400,Selangor,Selangor,03-5121 1280,3.01855,101.538,false
287,BANDAR PERDA BUKIT MERTAJAM,"NO 460, GROUND FLOOR,JALAN PERMATANG RAWA,BANDAR PERDA",14000,Pulau Pinang,Pulau Pinang,04-530 1012,5.36591,100.436,false
288,JALAN RAJA TAPAH,"NO 17, GROUND FLOOR,JALAN RAJA",35000,Perak,Perak,05-401 1811,4.19714,101.26,false
289,VIVA,"UNIT NO 1-09, GROUND FLOOR,BLOCK A, VIVA,NO 378 JALAN IPOH",51200,Wil. Persekutuan,Kuala Lumpur,03-4043 0911,3.17815,101.686,false
290,VILLAGE MALL SUNGEI PETANI,"LOT G-25&26, GRD FLOOR VILLAGE MALL,JALAN LEGENDA 1,LEGENDA HEIGHTS",8000,Kedah,Kedah,04-421 0393,5.66005,100.501,true
291,MEDAN RAJA SYED ALWI KANGAR,"NO 50, GROUND FLOOR,MEDAN RAJA SYED ALWI",1000,Perlis,Perlis,04-976 0020,6.44025,100.196,false
293,STAR CITY NORTH KOTA KINABALU,31 GROUND FLOOR STAR CITY,88000,Sabah,Sabah,088-447 327,5.97558,116.073,false
294,AEON BIG AMPANG,"LOT NO F2.28,F2.29,F2.35 & F2.36,CARREFOUR SHOPPING CENTRE, LOT 613,,TAMAN DAGANG PERMAI",68000,Selangor,Selangor,03-4291 6311,3.14051,101.779,false
295,AEON BIG TUN HUSSEIN ONN,"LOT NO F1.15, F1.16, F1.17 & F1.18,CARREFOUR SHOPPING CENTRE,BANDAR TUN HUSSEIN ONN",43200,Selangor,Selangor,03-9075 2480,3.04866,101.758,false
296,SENAI AIRPORT JOHORE,"LOT E5, PUBLIC CONCOURSE, AEON MALL,SULTAN ISMAIL INTERNATIONAL AIRPORT",81250,Johor,Johor,07-599 7269,1.63616,103.667,false
297,AEON AU2 TAMAN KERAMAT,"LOTG63, AEON AU2 SHOPPING CENTRE,NO6 JLN TAMAN SETIWANGSA(JLN 37/56),AU2 TAMAN KERAMAT",54200,Wil. Persekutuan,Kuala Lumpur,03-4251 7116,3.17806,101.75,false
301,GUARDIAN GIANT HYPER SHAH ALAM BINTANG,"LOT G005-G008,GIANT HYPER SHAH ALAM,NO 2 JLN PLUMBUM T7/T,PUSAT KOMERSIAL SEK7",40000,Selangor,Selangor,03-5510 2870,3.06592,101.489,false
302,SURIA SABAH SHOPPING MALL,"LOT B-58, B-59, B-60 & PART OF B-61,LOWER GROUND FLOOR,SURIA SABAH SHOPPING MALL",88000,Sabah,Sabah,088488739,5.98743,116.077,true
312,AEON TAMAN EQUINE,"LOT G13 AEON TAMAN EQUINE SHOPPING,NO 2 JALAN EQUINE,TAMAN EQUINE, BANDAR PUTRA PERMAI",43300,Selangor,Selangor,03-8943 2581,2.99439,101.675,false
315,DWITASIK TASEK PERMAISURI,"NO 11, GROUND FLOOR, JALAN DWITASIK,BANDAR TASEK PERMAISURI,CHERAS",56000,Wil. Persekutuan,Kuala Lumpur,03-9171 5421,3.09927,101.713,false
317,GUARDIAN GIANT SUPERMARKET PUTERA JAYA,"LOT 8, GROUND FLOOR, BLOCK C,TAMAN PUTERA JAYA 1,MILE 13, JALAN TUARAN, TELIPOK",88450,Sabah,Sabah,088-497 780,6.0763,116.187,false
318,TAIPING SENTRAL,"LOT G-39 & G-40, GROUND FLOOR,TAIPING SENTRAL MALL,NO 36, JALAN ISTANA LARUT",34000,Perak,Perak,05-808 1790,4.8654,100.731,false
320,AEON RAWANG,"LOT G05, GROUND FLOOR,KOMPLEKS BELI BELAH AEON ANGGUN,PERSIARAN ANGGUN, TAMAN ANGGUN",48000,Selangor,Selangor,0360912077,3.31666,101.536,true
321,ALL SEASON PLACE PENANG,"NO 6H-1-15 LVL 1, ALL SEASON PLACE,LEBUHRAYA THEAN TEIK,BANDAR BARU AYER ITEM",11500,Pulau Pinang,Pulau Pinang,048267266,5.39587,100.29,false
323,GIANT SUPERSTORE TUNJUNG,"LOT G17, GROUND FLOOR,,1, PERSIARAN LAGENDA,,BANDAR BARU TUNJUNG, SEKSYEN 65",15100,Kelantan,Kelantan,09-7406 765,6.07463,102.234,false
324,NU SENTRAL SHOPPING CENTRE,"LOT NO LG23 & LG24 LOWER GROUND,NU SENTRAL SHOPPING CENTRE,JALAN TUN SAMBANTHAN",50470,Wil. Persekutuan,Kuala Lumpur,03-22721443,3.13339,101.688,true
325,MEDAN PUTRA BANDAR MANJALARA,"67 GROUND FLOOR JALAN MEDAN PUTRA 1,MEDAN PUTRA BUSINESS CENTRE,BANDAR MENJALARA",52200,Wil. Persekutuan,Kuala Lumpur,03-6272 0705,3.1914,101.626,false
326,AEON STATION 18 PERAK,"LOT G09, AEON IPOH STATION18,2 SUSURAN STESEN 18,STATION 18",31650,Perak,Perak,05-322 2469,4.54608,101.07,true
327,GUARDIAN GIANT SUPERMARKET LABUAN,"LOT E011 GF GIANT SUPERMARKET LABUA,FINANCIAL PARK LABUAN COMPLEX,JALAN MERDEKA",87000,Labuan,Sabah,087-413 669,5.27614,115.249,false
328,SHAFTSBURY SQUARE CYBERJAYA,"UNIT P1-29 SHAFTSBURY SQUARE,PERSIARAN MULTIMEDIA,CYBER 6",63000,Selangor,Selangor,03-8318 1291,2.92334,101.661,true
329,HARBOUR MALL SANDAKAN,"LOT G06 GROUND FLOOR,HARBOUR MALL SANDAKAN,SANDAKAN HARBOUR SQUARE",90000,Sabah,Sabah,089-276 686,5.83889,118.12,false
330,JALAN BESAR MENGLEMBU,"115 GROUND FLOOR,JALAN BESAR",31450,Perak,Perak,05-281 5643,4.56662,101.047,false
331,1 SEGAMAT JOHOR,"LOT G47 GROUND FLOOR,1 SEGAMAT,JALAN KOLAM AIR",85000,Johor,Johor,079310094,2.50902,102.812,false
332,CENANG MALL LANGKAWI,"LOT GF3 CENANG MALL LANGKAWI,LOT 2605 JALAN PANTAI CENANG,MUKIM KEDAWANG",7000,Kedah,Kedah,04-955 2314,6.29094,99.7279,false
333,SUMMER SHOPPING MALL KUCHING,"G18 G130 G131 & G132 GROUND FLOOR,THE SUMMER SHOPPING MALL,JALAN DATO MOHD MUSA",94300,Sarawak,Sarawak,082-661844,1.45474,110.459,false
334,KOMPLEKS ARAU,"G41&G42,TINGKAT BAWAH,KOMPLEKS TOK ARAU,JALAN ARAU-KODIANG",2600,Perlis,Perlis,04-986 2703,6.42832,100.274,false
335,PLAZA MERDEKA KUCHING,"LOT NO B-02 & PART OF B-03,BASEMENT 1 PLAZA MERDEKA,NO 88, PEARL STREET",93000,Sarawak,Sarawak,082-234 944,1.55883,110.344,false
336,STAR CITY MENTAKAB,"LOT G28 & G29, GROUND FLOOR,MENTAKAB STAR CITY,NO 1 JALAN STAR CITY, STAR CITY",28400,Pahang,Pahang,09-278 5141,3.4711,102.331,false
337,KOTA KEMUNING SHAH ALAM,"NO 39, GROUND FLOOR,JALAN ANGGERIK VANILLA N31/N,KOTA KEMUNING",40460,Selangor,Selangor,03-5122 4858,3.00347,101.539,false
338,TERMINAL BERSEPADU SELATAN,"UNIT L3-6, THIRD FLOOR, TERMINAL,JALAN TERMINAL SELATAN,BANDAR TASIK SELATAN",57100,Wil. Persekutuan,Kuala Lumpur,03-9059 4988,3.078,101.711,false
339,GUARDIAN PUBLIKA,"Lot 10,Level UG,Publika,,Solaris Dutamas,,Jalan Dutamas 1",50480,Wil. Persekutuan,Kuala Lumpur,03-6206 4315,3.171353745455149,101.66542627388145,false
340,MILE 4 SANDAKAN,"LOT 1 GROUND FLOOR, BLOCK 7,BANDAR INDAH,MILE 4 NORTH ROAD",90000,Sabah,Sabah,089-220 636,5.85504,118.074,false
341,CHERAS SENTRAL MALL,"LOT NO 700-1F-38E & 700-1F-38F,FIRST FLOOR CHERAS CENTRAL,JALAN 2/142A OFF JALAN CHERAS, KM10",56000,Wil. Persekutuan,Kuala Lumpur,03-91001808,3.07859,101.745,false
342,EAST COAST MALL KUANTAN,"UNIT 2-42, LEVEL 2, EAST COAST MALL,JALAN PUTRA SQUARE 6,PUTRA SQUARE",25200,Pahang,Pahang,09-560 9242,3.81802,103.326,false
343,KLIA2,"L2-143, LEVEL 2, GATEWAY@KLIA2,,TERMINAL KLIA2, KL INTERNATIONAL,JALAN KLIA2/1,",64000,Selangor,Selangor,03-87878171,2.74367,101.686,true
344,GUARDIAN GIANT KUALA PILAH,"LOT NO G14-G17,GIANT SUPERSTORE KUALA PILAH,JALAN MELANG",72000,Negeri Sembilan,Negeri Sembilan,1 700 81 4506,2.73718,102.218,false
345,GURNEY PARAGON MALL,"163D-LG-07 & 08,GURNEY PARAGON MALL,PERSIARAN GURNEY",10250,Pulau Pinang,Pulau Pinang,04-2189033,5.43544,100.311,false
346,TESCO ARA DAMANSARA,"LOT F17 & F18, 1ST FLOOR,,TESCO ARA DAMANSARA,1 JLN PJU 1A/3A,ARA DAMANSARA, PJU 1A",47810,Selangor,Selangor,03-7859 8853,3.11849,101.576,false
347,SAUJANA UTAMA,"65-G, GROUND FLOOR,JALAN BIDARA 8,SAUJANA UTAMA 8",47000,Selangor,Selangor,0360383067,3.20321,101.487,true
348,TANJUNG MALIM PERAK,"44 TINGKAT BAWAH,JALAN BUNGA RAYA,TAMAN BUNGA RAYA",35900,Perak,Perak,05-458 3395,3.68171,101.52,false
349,ALOR SETAR MALL,"LOT G11, GF, ALOR SETAR MALL,KAWASAN PERUSAHAAN TANDOP BARU",5400,Kedah,Kedah,04-7711 334,6.08164,100.361,false
350,TAMAN MELAWATI KUALA LUMPUR,"NO 232, GRD FLOOR, JALAN BANDAR 13,TAMAN MELAWATI METRO 1,TAMAN MELAWATI",53100,Wil. Persekutuan,Kuala Lumpur,03-41012113,3.20936,101.749,false
352,PERMAISURI IMPERIAL MIRI,"FF31 & FF32, FIRST FLOOR,PERMAISURI IMPERIAL CITY MALL,JALAN MERPATI",98000,Sarawak,Sarawak,085-419048,4.40053,113.99,false
353,SEMUA HOUSE,"LOT 1.21 FIRST FLOOR,SEMUA HOUSE,JALAN BUNUS 6",50100,Wil. Persekutuan,Kuala Lumpur,03-26914013,3.15516,101.698,false
354,AEON KULAI,"F01&F02,1ST FLR AEON MALL KULAIJAYA,PERSIARAN INDAHPURA UTAMA,BANDAR INDAHPURA",81000,Johor,Johor,07-660 6148,1.64071,103.617,false
355,PARADIGM MALL,"LOT GB-11, GROUND FLOOR, PARADIGM,NO 1, JALAN SS7/26A,KELANA JAYA",47301,Selangor,Selangor,03-78028467,3.10508,101.596,false
358,SUNGAI WANG PLAZA,"UNIT NO C02&03 CONCOURSE LEVEL,SUNGEI WANG PLAZA,JALAN BUKIT BINTANG",55100,Wil. Persekutuan,Kuala Lumpur,03 2141 0031,3.14433,101.711,false
359,KEPALA BATAS PENANG,"10&12,GF, JLN DAGANGAN 8,,PUSAT BANDAR BERTAM PERDANA,KEPALA BATAS",13200,Pulau Pinang,Pulau Pinang,04-5754 785,5.517,100.45,false
362,1ST AVENUE PENANG,"LOTS LG-13 & LG-14,,1st AVENUE,182 JALAN MAGAZINE",10300,Pulau Pinang,Pulau Pinang,042610025,5.41329,100.332,false
364,QUILL CITY MALL KL,"LOTS NO. 2-37 & 2-38, SECOND FLOOR,QUILL CITY MALL,JALAN SULTAN ISMAIL",50250,Wil. Persekutuan,Kuala Lumpur,03-26022582,3.15964,101.701,false
365,ENCORP STRAND MALL,"F45&F46,1ST FLOOR ENCORP STAND MALL,PUSAT PERDAGANGAN KOTA DAMANSARA,JALAN PJU5 KOTA DAMANSARA",47810,Selangor,Selangor,03-61518391,3.15532,101.593,false
366,AVENUE K,"L1-14 & L1-15, LEVEL 1 AVENUE K,156 JALAN AMPANG",50450,Wil. Persekutuan,Kuala Lumpur,03-21612642,3.15961,101.713,false
368,AEON MALL TAIPING,"LOT F41 & F41A, 1ST FLOOR,AEON MALL TAIPING,JALAN KAMUNTING",34600,Perak,Perak,05-8048094,4.8725,100.729,false
369,IMAGO SHOPPING MALL,"B29 & B30, IMAGO SHOPPING MALL,KK TIMES SQUARE PHASE 2,JALAN COASTAL",88100,Sabah,Sabah,088-274621,5.97091,116.066,true
370,Guardian IOI Mall 2,"LG-263 & 265, Lower Ground Floor,IOI City Mall Phase II",62502,Wil. Persekutuan,Kuala Lumpur,0389385310,2.96922,101.714,false
372,AEON BUKIT MERTAJAM,"G29A & G29B,GF,AEON MALL BKT MERTAJ,LOT NO 30908, JALAN ROZHAN ALMA,,SEBERANG PRAI TENGAH",14000,Pulau Pinang,Pulau Pinang,04-5489742,5.32097,100.478,false
373,SUNWAY PUTRA MALL,"LG-5, SUNWAY PUTRA MALL,,100, JALAN PUTRA,",50350,Wil. Persekutuan,Kuala Lumpur,03-4040 0726,3.16625,101.692,true
374,ONE CITY USJ,"A-GF-07, GROUND FLOOR,,ONE CITY MALL,,JALAN USJ 25/1A,",47650,Selangor,Selangor,03-5115 0313,3.02145,101.581,false
377,STAR AVENUE SUBANG BESTARI,"LOT L1-08,STAR AVENUE LIFESTYLE,NO. 3,JALAN ZUHAL U5/179,PUSAT,PUSAT KOMERSIAL ARENA BINTANG,SEKU5",40150,Selangor,Selangor,03-7831 4518,3.15481,101.554,false
378,AEON KLEBANG,"AEON MALL IPOH KLEBANG,LIT 12080, KLEBANG PERDANA",31200,Perak,Perak,05-291 8314,4.6773,101.123,false
379,"VIVACITY MALL, KUCHING","LG–001,002&004,LG FLOOR,,VIVACITY MEGAMALL, JALAN WAN ALWI,",93350,Sarawak,Sarawak,082263880,1.52685,110.369,true
381,AMAN CENTRAL,"LG-03, LOWER GROUND FLOOR,,AMAN CENTRAL,,LEBUHRAYA DARUL AMAN,",5100,Kedah,Kedah,04-7304 480,6.1248,100.366,false
382,SUNWAY VELOCITY,"B-12, BASEMENT ONE,,SUNWAY VELOCITY MALL,,LINGKARAN SV,SUNWAY VELOCITY,",55100,Wil. Persekutuan,Kuala Lumpur,03-9201 6476,3.12747,101.725,true
383,SETAPAK CENTRAL KL FESTIVAL,"G-02A,GROUND FLOOR,SETAPAK CENTRAL,,67, JALAN TAMAN IBU KOTA,,TAMAN DANAU KOTA,SETAPAK",53300,Wil. Persekutuan,Kuala Lumpur,03-4142 0075,3.2037,101.721,false
384,AEON BUKIT INDAH JOHOR BAHRU,"F50, F51 7 F52, AEON BUKIT INDAH,JALAN INDAH 15/2,TAMAN BUKIT INDAH",79100,Johor,Johor,07-2325540,1.48103,103.656,false
385,KLUANG MALL KLUANG,"LOT LG-13A & LG-15, KLUANG MALL,JALAN RAMBUTAN,BANDAR KLUANG",86000,Johor,Johor,07-7763539,2.03987,103.321,false
386,EMPIRE SHOPPING GALLERY,"F30 & F31, FIRST FLOOR,EMPIRE SHOPPING GALLERY,,JALAN SS16/1,",47500,Selangor,Selangor,03-5621 0237,3.08195,101.583,false
387,AEON BIG WANGSA MAJU,"LOT NO G-25&43A, GROUND FLOOR,,AEON BIG WANGSA MAJU,,6 JLN 8/27A, SECTION 5,WANGSA MAJU",53300,Wil. Persekutuan,Kuala Lumpur,03-41420403,3.19677,101.743,false
388,EVOLVE MALL CONCEPT MALL,"EV-G-19 & EV-G-20, GROUND FLOOR,,EVOLVE CONCEPT MALL@PACIFIC PLACE,JLN PJU 1A/4, ARA DAMANSARA",47301,Selangor,Selangor,03-78318483,3.11033,101.587,false
389,JB CITY SQUARE LEVEL 2,"M2-02 & M2-03,LEVEL 2,,JOHOR BAHRU CITY SQUARE,NO 106-108,,JALAN WONG AH FOOK,",-,Johor,Johor,072200584,1.46141,103.764,true
390,TRIANG,"NO. 3&5, GROUND FLOOR,,JALAN SENTRAL TRIANG 6,,SENTRAL TRIANG,",28300,Pahang,Pahang,09-2507 197,3.25974,102.436,false
391,EG MALL KOTA MARUDU,"LOT 11 (B) & 12, GROUND FLOOR,BLOCK A, EG MALL KOTA MARUDU,JALAN GOSHEN",89107,Sabah,Sabah,088-663278,6.49258,116.762,false
393,Guardian Sura Gate Buss Ctr Dungun Terengganu,"No. 7 Ground Floor,,HS (D) 1374, PT 18074,",23000,Terengganu,Trengganu,09-844 2473,4.75636,103.419,false
394,AEON MALL SHAH ALAM,"LOT F-01,FIRST FLOOR, AEON MALL,JALAN AKUATIK 13/64,,D'KAYANGAN, SEKSYEN 13,",40100,Selangor,Selangor,0355230398,3.07633,101.547,true
395,Guardian First World Plaza,"Lot No T2A-A09A of Level 2,,Sky Plaza,Genting Highland",69000,Pahang,Pahang,03-6101 1494,3.42496,101.794,false
397,Guardian Melawati,"Lot LG-04, Lower Ground,Melawati Mall, 355 Jalan Bandar Melawati,Pusat Bandar Melawati",53100,Wil. Persekutuan,Kuala Lumpur,03-4161 1384,3.20932,101.749,false
398,Guardian Paradigm Mall JB,"GF-16 & 17,Paradigm Mall Johor Bahru,Jalan Skudai,",81200,Johor,Johor,07-232 6307,1.51506,103.686,true
399,JB CITY SQUARE LEVEL 4,"LOT NO. J4-09, LEVEL 4,,JOHOR BAHRU CITY SQUARE,,106 - 108 JALAN WONG AH FOOK,",80000,Johor,Johor,07 - 2200 271,1.46141,103.764,false
400,SS15 COURTYARD SUBANG JAYA,"LOT LG-01B, LOWER GROUND FLOOR,,SS15 COURTYARD. JALAN SS15/4G,",47500,Selangor,Selangor,03-5611 7488,3.07781,101.586,false
402,JALAN KUALA KANGSAR 2,"NO 4 & 6, JALAN KUALA KANGSAR",33000,Perak,Perak,057700012,4.77142,100.942,true
404,STARLING MALL,"LOT B-005-006, BASEMENT LEVEL 1,,THE STARLING MALL,,JALAN SS21/60, DAMANSARA UTAMA,",47400,Selangor,Selangor,0377334729,3.13491,101.623,true
406,PAVILION SHOPPING MALL,"LOT. NO. 1.26.00, LEVEL 1,,PAVILION, NO. 168,,JALAN BUKIT BINTANG,",55100,Wil. Persekutuan,Kuala Lumpur,03-2113 0031,3.14953,101.713,true
407,Guardian CityONE Megamall Kuching,"Unit Nos MG16, MG17 & MG18,Ground Floor, Mall 1, CityONE Megamall,No. 1, Jalan Song",93350,Sarawak,Sarawak,082-532 609,1.52034,110.355,false
408,Guardian Kuantan City Mall,"L 1-05, Level 1, Jalan Putra Square 6/1,Putra Square, Kuantan City Mall,Kuantan",25300,Pahang,Pahang,09-5316 693,3.81742,103.328,false
409,Guardian KL Eco City,"Guardian KL Eco City,KL Eco City Retail Centre,,Kuala Lumpur",59200,Wil. Persekutuan,Kuala Lumpur,03-2201 2413,3.11796,101.674,false
410,Guardian Austin Heights Johor Bahru,"Lot No 23, Ground Floor,,Jalan Austin Heights 3,,Taman Mount Austin,",81100,Johor,Johor,07-351 3687,1.56007,103.78,false
411,Guardian AEON Mall Kuching Central,"Lot F20 &F21, First Floor,,AEON Mall Kuching Central,",93200,Sarawak,Sarawak,082237080,1.52766,110.337,true
412,KL GATEWAY MALL,"LOT UG20, UPPER GROUND FLOOR,,KL GATEWAY MALL, NO.2, JALAN KERINCHI,GERBANG KERINCHI LESTARI,",59200,Wil. Persekutuan,Kuala Lumpur,03 7931 3480,3.11393,101.663,false
413,KSL MALL (RELOCATION),"LOT LG-23A, LOWER GROUND FLOOR,,KSL CITY, JALAN SELADANG,,TAMAN ABAD",80250,Johor,Johor,07-289 1064,1.48618,103.762,false
414,KUBANG KERIAN,"LOT NO PT 1705, TINGKAT BAWAH,,JALAN RAJA PEREMPUAN ZAINAB 2,KUBANG KERIAN",16100,Kelantan,Kelantan,09-764 1268,6.09809,102.279,false
416,Guardian AEON Mall Bandar Dato Onn,"AEON Mall Bandar Dato Onn,No 3, Jalan Dato Onn 3,Bandar Dato Onn",81100,Johor,Johor,07-3500 274,1.56392,103.735,false
417,Emart Matang Kuching,"Lot No S51 & S74,Emart Matang,Kuching",93050,Sarawak,Sarawak,082-645 008,1.57246,110.303,false
419,Guardian Fahrenheit 88,"Lot G14, Ground Floor,Fahrenheit 88 Shopping Mall,179 Jalan Bukit Bintang",55100,Wil. Persekutuan,Kuala Lumpur,03-2141 4697,3.14751,101.713,false
421,Guardian Amcorp Mall 2,"Unit No G37, G38 & G39,,Ground Floor,Amcorp Mall",46050,Selangor,Selangor,03-7954 0300,3.10502,101.647,false
422,Guardian C Mart Nibong Tebal,"Lot G-65, C Mart, Nibong Tebal,,5631, H.S. (D) 2523, Mukim 11,,Nibong Tebal",14300,Pulau Pinang,Pulau Pinang,04-5955 452,5.17874,100.482,false
423,Guardian Saradise Kuching,"LOT G16 & G17, OFF JALAN STUTONG,SARADISE KUCHING",93350,Sarawak,Sarawak,082-528 413,1.50601,110.361,false
424,Guardian TF Value Mart Seri Manjung,"LOT A15 & 16,,TF Value Mart Seri Manjung, PT,,Pusat Perniagaan Manjung Point 1,",32040,Perak,Perak,05-687 0414,4.20121,100.661,false
425,Guardian Financial Park Labuan,"Lot No A008, Ground Floor,,Financial Park Shopping Complex,",87000,Sabah,Sabah,087-410 121,5.27625,115.249,false
426,Guardian Regina Mall Port Dickson,"Lot G-8, Ground Floor,,Regina Mall, Batu 1/2 Jalan Pantai,",71000,Negeri Sembilan,Negeri Sembilan,06-646 2960,2.52406,101.802,false
427,Guardian The Spring Mall Kuching,"Lot G54B, Ground Floor,The Spring Shopping Mall,Persiaran Spring",93300,Sarawak,Sarawak,082230057,1.53585,110.358,false
430,Guardian Wetex Parade Muar,"Lot 1-23A 25, & 25A Level 1,,Wetex Parade Shopping Centre,,No 69 Jalan Ali,",84000,Johor,Johor,06-950 1031,2.04413,102.566,false
431,Guardian Star Megamall Sibu,"L1-21, Ground Floor,,Star Mega Mall, Lot 1294,,Tunku Abdul Rahman Road,",96000,Sarawak,Sarawak,084-211 165,2.30507,111.865,false
432,Guardian SB Mall Sungai Buloh,"Lot G-18A, Ground Floor,,SB Mall, Jalan Bpr 1,,Bukit Rahman Putra,",47000,Selangor,Selangor,03-6140 5812,3.20917,101.564,false
433,Guardian Wisma Sanyan Sibu,"Lot 1.15 & 1.16, First Floor,,Wisma Sanyan",96000,Sarawak,Sarawak,084-313 523,2.29063,111.825,false
434,Guardian Dpulze Shopping Centre Cyberjay,"Lot No. UG10, Upper Ground Floor,,Dpulze Shopping Centre, Lingkaran Cyber,Cyber 12,",63000,Selangor,Selangor,03-8322 6716,2.92217,101.651,false
435,Guardian Bintulu Sentral Sarawak,"Lot 175 & 176, Ground Floor,,Bintulu Sentral,,Jalan Kidurong,",97000,Sarawak,Sarawak,086-310 171,3.20306,113.058,false
436,Guardian Jalan Bunga Raya Melaka,"Lot No. 189-G-02,,Jalan Persisiran Bunga Raya,",75100,Melaka,Melaka,06-281 0562,2.20117,102.251,false
437,Guardian Kuala Nerang Kedah,"Lot No. 21 & 22,,Jalan Semeliang, Pekan Baru,,Kuala Nerang",6300,Kedah,Kedah,04-7860 219,6.25811,100.609,false
438,Guardian Seremban Gateway Negeri Sembila,"Lot No. 4, Ground Floor,,Seremban Gateway,",70200,Negeri Sembilan,Negeri Sembilan,06-760 6592,2.71715,101.92,true
439,Guardian Cameron Fair Cameron Highlands,"No. C-G-073, C-G-073A, C-G-075,,Level G, Cameron Fair Tanah Rata,,Tanah Rata, Cameron Highlands",39000,Pahang,Pahang,05-4851 371,4.4694,101.376,false
442,"THE SPRING, BINTULU","LOT NO. F45 & F46, FIRST FLOOR, THE SPRING SHOPPING MALL, BINTULU, SARAWAK, MALAYSIA",97000,Sarawak,Sarawak,086344253,3.181260,113.034295,false
443,GUARDIAN AEON MALL NILAI,"LOT G25, GROUND FLOOR, AEON MALL NILAI, NEGERI SEMBILAN",71800,Negeri Sembilan,Negeri Sembilan,067953491,2.817994,101.789727,false
444,KLIA 2 (2ND STORE),"LOT NO. L3-41, L3-42, L3-43, L3-45 & L3-46, LEVEL 3, GATEWAY@KLIA2, 64000, SELANGOR",64000,Selangor,Selangor,,2.745177,101.685056,false
446,"JALAN MERDEKA, LABUAN","LOT NO. U0098, GROUND FLOOR, BA, JALAN MERDEKA, 87000 LABUAN, MALAYSIA",87000,Sabah,W.P. Labuan,087504821,5.277820,115.241892,false
447,"CENTRAL I-CITY, SHAH ALAM","UNIT LG-48, LG-49 AND LG-52, LOWER GROUND FLOOR, CENTRAL I-CITY, 40000 SHAH ALAM, SELANGOR",40000,Selangor,Selangor,0103072689,3.062468,101.481772,true
448,ITCC PENAMPANG,"LOT NO. G-123, GROUND FLOOR, INTERNATIONAL TECHNOLOGY & COMMERCIAL CENTRE PENAMPANG, SHOPPING MALL, 89500 PENAMPANG, SABAH, MALAYSIA.",89500,Sabah,Sabah,088745082,5.910366,116.091296,false
449,"METRO POINT COMPLEX, KAJANG"," LOT G21 & G28, GROUND FLOOR, METRO POINT COMPLEX, JALAN JELOK 8, 43000 KAJANG, SELANGOR",43000,Selangor,Selangor,0387407646,2.991862,101.793750,false
451,BERJAYA TIMES SQUARE (1ST FLOOR),"Lot No.01-14&0-15,,1st Floor,Berjaya Times Square,No.1,Jalan Imbi, KL",55100,Wil. Persekutuan,Kuala Lumpur,,3.142344,101.710672,false
452,"PUSAT PERNIAGAAN BALDWIN, TAPAH","LOT NO. 117, GROUND FLOOR, JALAN BALDWIN 3, PUSAT PERNIAGAAN BALDWIN, 35000 TAPAH, MALAYSIA.",35000,Perak,Perak,054010304,4.196967,101.262994,false
453,"LINTAS PLAZA, KK","LOT 17, GROUND FLOOR, JALAN LINTAS, PLAZA LINTAS, 88300 KOTA KINABALU, SABAH, MALAYSIA.",88300,Sabah,Sabah,088201371,5.945544,116.089545,false
454,"AMPANG BUSINESS CENTRE, ALOR SETAR","LOT 10A, GROUND FLOOR, PT 111, KOMPLEKS PERNIAGAAN AMPANG, LEBUHRAYA SULTANAH BAHIYAH, 05050 ALOR SETAR, KEDAH, MALAYSIA.",5050,Kedah,Kedah,,6.112454,100.350513,false
455,Guardian KLIA Level 5 Main,"LOT NO. MTB-5-L13, LEVEL 5, MAIN TERMINAL BUILDING, KUALA LUMPUR INTERNALTIONAL AIRPORT, 64000 KLIA, SELANGOR",64000,Selangor,Selangor,0387765833,2.752755,101.703907,true
456,AEON BIG BUKIT RIMAU,"LOT F1.30A, F1.31A, F1.32-35, GROUND FLOOR, AEON BIG BUKIT RIMAU, BUKIT RIMAU, 40460 SHAH ALAM, SELANGOR",40460,Selangor,Selangor,0351314202,2.999555,101.528474,false
457,"AEROVILLE MALL, KUCHING","LOT 1A3 – LOT 1 & 2 GROUND FLOOR, AEROVILLE SHOPPING MALL, 93350 KUCHING, SARAWAK, MALAYSIA.",93250,Sarawak,Sarawak,082460942,1.496539,110.371362,false
458,R&F MALL JB,"LOT 1-024 & 1-025, FIRST FLOOR, R&F MALL, JOHOR BAHRU",80300,Johor,Johor Bahru,072767947,1.459676,103.768169,false
459,AEON BIG KLANG,"LOT F1.03A-05, GROUND FLOOR, AEON BIG KLANG, JALAN HARMONI 3/KU3, SUNGAI PINANG, 41400 KLANG, ",41400,Selangor,Selangor,0333582017,3.069072,101.430443,false
461,PAPAR SQUARE,"LOT NO. 55, GROUND FLOOR, PAPAR SQUARE, KG. LINGAN, 89600 PAPAR, SABAH, MALAYSIA ",89600,Sabah,Sabah,088910592,5.726708,115.934641,false
462,"SEJATI WALK, SANDAKAN","LOT G-A-25 & G-A-26, GROUND FLOOR, SEJATI WALK, JALAN MERPATI, 90000 SANDAKAN, SARAWAK",90000,Sabah,Sabah,089667932,5.889366,118.048099,false
463,"MEGA EMART RIAM, MIRI","LOT 8883, BLOCK 1 LLD, JALAN MIRI-BINTULU, MEGA E-MART COMMERCIAL CENTRE, 98000 MIRI, SARAWAK, MALAYSIA",98000,Sarawak,Sarawak,085324119,4.343817,113.993047,false
464,AEON BIG FALIM,"LOT G.07, GROUND FLOOR, AEON BIG FALIM, TAMAN MAS JAYA, FALIM, 30200 IPOH, NEGERI PERAK",30200,Perak,Perak,052810947,4.581744,101.059816,false
465,Guardian AEON Big Bukit Minyak,"LOT G.28-30, GROUND FLOOR, AEON BIG BUKIT MINYAK, TAMAN BUKIT MINYAK, 14000 BUKIT MERTAJAM, PENANG",14000,Pulau Pinang,Pulau Pinang,045020842,5.328773,100.446192,false
466,TF Value Mart Balik Pulau,"Lot 1,2,3 Kiosk 1&2, TF Value Mart Balik Pulau, Balik Pulau, 11000 Pulau Pinang",11000 ,Pulau Pinang,Pulau Pinang,048693513,5.370560,100.217328,false
467,Guardian Design Village Penang,"Lot No G141, Design Village Outlet Mall, Jalan Cassia Barat 2, Bandar Cassia, 14110 Pulau Pinang",14110,Pulau Pinang,Pulau Pinang,04 - 5880 461,5.244250,100.437040,false
468,Guardian Jalan Pesta Muar,"Lot No 3, Ground Floor, Jalan Pesta 1-1, Taman Tun Dr Ismail, 84000 Muar, Johor",84000,Johor,Johor,06 - 959 3247,2.048696,102.586934,false
470,GUARDIAN PASARAYA METRO KAJANG,"Lot G-06 – G9, No. 1, Jalan Kajang Mewah 7A, Taman Kajang Mewah, 43000 Kajang, Selangor",43000,Selangor,Selangor,,2.976075,101.779444,false
471,GUARDIAN JAYA ONE,"P2.019 , P2.021 & P2.023,72A, Jalan Universiti, Seksyen 13, 46200 Petaling Jaya, Selangor",46200,Selangor,Selangor,,3.118689,101.635265,true
473,Guardian TF Sunway City Ipoh,"Guardian TF Value Mart Sunway City Ipoh, No 2, Jalan SCI 2/2, Bandar Sunway Ipoh, 31400 Ipoh Perak",-,Perak,Perak,,4.622603,101.150724,true
475,Guardian KL East Mall,"Lot G2-29, Ground Floor, KL East Mall, 53100 Kuala Lumpur",53100,Wil. Persekutuan,Kuala Lumpur,,3.224753,101.730340,false
477,Guardian (SIS) Giant Hypermarket Kota Damansara,"No 16, Jalan PJU 5/1, Kota Damansara, PJU 5, 47810 Petaling Jaya, Selangor ",47810,Selangor,Selangor,0129270282,3.156274,101.596169,true
479,"GUARDIAN KTCC MALL, KUALA TERENGGANU","Lot No G-21 & G-22, Ground Floor, KTCC Mall, 20000 Kuala Terengganu",20000,Terengganu,Terengganu,096227311,5.333310,103.149596,true
482,GUARDIAN KIPMALL DESA COALFIELD,"Lot LG 18, LG 19 & LG 20, KIP Mall Desa Coalfield, Desa Coalfields, 47000 Selangor",47000,Selangor,Selangor,,3.238651491360113,101.48840148107914,false
483,Guardian (SIS) TMC Bangsar,"TMC BANGSAR (TMCB) 23-27 LORONG ARA KIRI SATU, LUCKY GARDEN, BANGSAR, 59100 KUALA LUMPUR",59100,Wil. Persekutuan,Kuala Lumpur,,3.12948955291882,101.66953023068288,false
485,Guardian AEON Mall Seri Manjung,"Lot G72 & G73, Ground Floor,,AEON Mall Seri Manjung",32040,Perak,Perak,05-687 0302,4.21974429175509,100.67114372538800,false
488,(SIS) GUARDIAN GIANT BANDAR BARU AMPANG,"GIANT HYPERMARKET BANDAR BARU AMPANG,SPECTRUM SHOPPING MALL,JALAN WAWASAN 4/2, BDR BARU AMPANG",68000,Selangor,Selangor,,3.146028849051956,101.76507630033068,false
521,(SIS) GUARDIAN GIANT SENAWANG,"GIANT HYPERMARKET SENAWANG,LOT 1571, JALAN SENAWANG,TAMAN KOMERSIAL SENAWANG",70400,Negeri Sembilan,Negeri Sembilan,0122606486,2.7021504338944675,101.984763612056,false
530,(SIS) GUARDIAN GIANT SMKT AMCORP MALL,"GIANT SUPERMARKET AMCORP MALL,LG22, LGF BLOK E, AMCORP MALL,18 PERSIARAN BARAT OFF JALAN TIMUR",46050,Selangor,Selangor,,3.1042135050997675,101.64714049391418,false
566,(SIS) GUARDIAN SMKT KELANA JAYA,"GIANT SUPERMARKET KELANA JAYA,NO.2-8, SS 6/3,PUSAT BANDAR KELANA JAYA",47301,Selangor,Selangor,,3.1051450645930525,101.60023195121634,false
569,Gdn Econsave Kubang Kerian,"KK 27, 1st Flr, Econsave Kubang Kerian,Lot PT 1640 & PT 1685, Sek. 54,Jln. Raja Perempuan Zainab II",16150,Kelantan,Kelantan,,6.100339789621253,102.27924647056882,false
572,Guardian Amanjaya Mall,"Lot A7,GF,No 1 Jln Jati 1,,Sungai Petani, Kedah",8000,Kedah,Kedah,044445961,5.674331488501615,100.5095329294384,false
575,Guardian Bahau Negeri Sembilan,"Lot No.126A & Lot No.126B,,Ground Floor, Jalan Mewah,",72100,Negeri Sembilan,Negeri Sembilan,064539162,2.783270849409481,102.35806033300209,false
578,Guardian Bandar Sri Sendayan,"No. 25, Persiaran Metro Sendayan 1,Sendayan Metro Park",71950,Negeri Sembilan,Negeri Sembilan,,2.6869550031426503,101.8474432847236,false
581,Guardian Bandar Yong Peng,"Lot.15, GF,,Jalan Bayan,Tmn Sembrong Barat,,Tmn Sembrong,",83700,Johor,Johor,074673322,2.0106316008151968,103.06596740546146,false
584,Guardian Bataras Kelombong Sabah,"NO CL015484974 CL015484983,5 1/2 MILE JALAN TUARAN KOLOMBONG",88400,Sabah,Sabah,088434671,5.990554204736204,116.12453540042375,false
587,Guardian Bataras Keningau Sabah,"LOT NO.G8&G9,GIANT SUPERSTORE,BANDAR BARU KENINGAU,JALAN APIN APIN",89000,Sabah,Sabah,087337995,5.357684674203973,116.17460609989944,false
590,Guardian Bataras Papar Sabah,"NO.CL 025019970,,1/2 KM JALAN PENGALAT,",89608,Sabah,Sabah,088915314,5.737304027158621,115.93847803806717,false
596,Guardian Beaufort Sabah,"Lot 99, Beaufort Commercial Centre,,Beaufort",89800,Sabah,Sabah,087211360,5.737908387571694,115.93849216628928,false
599,Guardian Boulevard Bintulu,"Lot No. G-23 & G-24, GF,,Boulevard Shopping Mall,,Jln Tanjung Batu",97000,Sarawak,Sarawak,086345744,3.200958955413893,113.0479582327587,false
602,Guardian C180 Cheras Selatan,"Unit A-10-G,GF,,Jalan C180/2,Batu 11,,Cheras, Selangor",43200,Selangor,Selangor,0390818514,3.0364231748163206,101.76612090014935,false
605,Guardian Centre Point KK,"Lot B41, B42, B43 & B44,,2nd Floor, Centre Point Sabah,,Lorong Centre Point",88000,Sabah,Sabah,088214761,5.97346921807808,116.06835320929916,false
608,Guardian Citta Mall,"Lot No.G-26, Ground Floor,Citta Mall,Ara Damansara",47301,Selangor,Selangor,,3.1119225828448878,101.5793954107563,false
611,Guardian EcoMall Petra Jaya,"Lot M-0-77(S014),Lot No.F28,F29,F30&F31,,First Floor ECO Mall Petrajaya,,Taman Melati 2,",93050,Sarawak,Sarawak	,082312140,1.5822354906044027,110.33111684171227,false
614,Guardian Eko Cheras,"Lot No.S-52,2nd Floor,,Eko Cheras Mall,Jalan Cheras,,Taman Mutiara Barat",56000,Wil. Persekutuan,Wil. Persekutuan,0391339754,3.0931920189783733,101.73894583652941,false
620,Guardian Garden Home,"No. 916, Jalan S2 F23,Garden Homes,Seremban 2",70300,Negeri Sembilan,Negeri Sembilan,,2.682959369563914,101.9036927424311,false
623,GUARDIAN GIANT HYPERMARKET NUSA BESTARI,"LOT F22 1ST FLOOR,GIANT HYPERMARKET NUSA BESTARI,NO1 JLN BESTARI 7/2 TMN NUSA BESTAR",81300,Johor,Johor,072357688,1.483614562954414,103.66543120861569,false
626,Guardian Gurney Mall UTM,"Lot 1-33, Level 1,,Jalan Maktab,,Kg Datuk Keramat,",54000,Wil. Persekutuan,Wil. Persekutuan,0322027638,3.1719302915723904,101.72210447463603,false
629,Guardian Gurney Plaza,"Lot No.170-B1-05, Basement 1,Gurney Plaza,Gurney Drive, Pulau Tikus",10250,Pulau Pinang	,Pulau Pinang	,042189160,5.4363050493840985,100.31107003896187,true
632,Guardian Hulu Langat Kajang Selangor,"11, Jalan Seri Mas 1,Taman Seri Mas,Hulu Langat",43100,Selangor,Selangor,0390211048,3.1107264370344745,101.79717100849389,false
635,Guardian ICOM Square Kuching,"Lot A113, GF,,Block A1, ICOM Square,,Jalan Pending, Kuching",93450,Sarawak,Sarawak,082552972,1.5517244216342243,110.37225630002021,false
638,Guardian Jalan Beserah,"A-6606, Ground Floor,,Taman Metro,  Jalan Beserah",25250,Pahang,Pahang,095605426,,,false
641,Guardian Komtar JBCC Johor Bahru,"Lot No. 106-107,,1st Floor, Komtar JBCC,",80000,Johor,Johor,072200946,1.46356974321925,103.76349148945162,false
644,Guardian Lotuss Ara Damansara,"LOT F17 & F18, 1ST FLOOR,,TESCO ARA DAMANSARA,1 JLN PJU 1A/3A,ARA DAMANSARA, PJU 1A",47301,Selangor,Selangor,0378598853,3.1198335656034866,101.57589406078772,false
647,Guardian Lotuss Melaka,"LOT NO L4, TESCO MELAKA,,NO 1, JALAN TUN ABDUL RAZAK,,PERINGGIT",75400,Melaka,Melaka,062882589,2.218101267296675,102.24741392894195,true
650,Guardian Lotuss Parit Raja,"L11 & 12, Tesco Parit Raja,HSD 70098, PTD No 23625 Mukim Sri Gading,Batu Pahat",86400,Johor,Johor,074570534,1.8498987907970292,103.07661485728376,false
653,Guardian Lotuss Putra Nilai,"Tesco Putra Nilai,,No. 1, Jalan BBN 1/3,,Putra Nilai",71800,Negeri Sembilan,Negeri Sembilan,067953135,2.815674670438079,101.79048169101729,false
656,Guardian Lotuss Setia Alam,"Lot No F6, Tesco Setia Alam,Jalan Setia Prima U13/3,Setia Alam",40170,Selangor,Selangor,0333410320,3.107494963926163,101.44469027167388,false
659,Guardian Mid Valley Southkey JB,"Lot LG-022&023,Lower GF,,The Mall,Mid Valley SouthKey,,Persiaran Southkey 1, Southkey",80150,Johor,Johor,073360581,1.500725847231384,103.7778797062741,true
662,Guardian Miri Times Square,"Unit D-G-10, Block D,,Miri Times Square Marina Parkcity,,Jalan Bendahara",98000,Sarawak,Sarawak,085325064,4.39316636747107,113.98567193046861,false
665,Guardian Padang Matsirat,"The Smith House,,Lot 9&10,Bandar Padang Matsirat,,Pulau Langkawi",7000,Kedah,Kedah,049553102,6.35044267727022,99.73080000087991,false
668,Guardian Palm Mall,"Level 4, Lot UG-22,,Upper GF,Palm Mall,,Jalan Sungai Ujong,",70200,Negeri Sembilan,Negeri Sembilan,067612079,2.7199454492088773,101.92292080922124,false
671,Guardian Parit Buntar,"No. 5 Persiaran Shahbandar,,Pusat Bandar Baru,,Parit Buntar",34200,Perak,Perak,057160677,5.119225197489041,100.48668638487732,false
674,Guardian Penang Sentral,"2-03, Level 2,,Penang Sentral",12000,Pulau Pinang,Pulau Pinang,043134674,5.394898018651761,100.36559895840949,false
677,Guardian Pengkalan Chepa,"Lot No. 15&16, GF,,Pantai Timur Hypermarket,Taman Bendahara,Pengkalan Chepa",16100,Kelantan,Kelantan,097733232,6.164358879006761,102.28096006554995,false
680,Guardian Sentosa Parade Kuching,"Lot No.1659 (SL 5), GF,,Sentosa Parade, BLK 46,Kcld,,7th Mile, Jln Penrissen",93250,Sarawak,Sarawak,082622782,1.470741554777335,110.32950923930458,false
683,Guardian Setapak Central Kuala Lumpur,"Lot G48,GF,Setapak Central,,67,Jln Taman Ibu Kota,,Taman Danau Kota",53300,Wil. Persekutuan,Wil. Persekutuan,0341315376,3.2038675765743703,101.7210682713342,false
686,Guardian Setia City Mall,"LG102/02, Lower Ground Floor,No.2, Jalan Setia Dagang AH U13/AH,Setia Alam, Seksyen U13",40170,Selangor,Selangor,0330829147,3.1107120316337227,101.45817047256618,false
689,Guardian Solaria Square Penang,"Lot No. 2-G-2 & 2-G-3,,Ground Floor, Medan Rajawali,,Solaria Square",11900,Pulau Pinang,Pulau Pinang,046116517,5.300226220645159,100.2662118985242,false
692,Guardian Subang Parade Subang Jaya,"Lot LG12, Lower Ground Floor,,Subang Parade, Jalan Kemajuan Subang, SS",47500,Selangor,Selangor,0356210695,3.0819684047475264,101.58483140963816,false
695,Guardian Summit USJ,"Persiaran Kewajipan USJ 1,,Lot G0.7,G0.8 & G0.9, GF,GF, The Summit Subang USJ,",47600,Selangor,Selangor,0380114438,3.0607890698807716,101.59333556193036,false
698,Guardian Sunway Big Box Village,"Lot UG-L-4,Upper GF,,Sunway Big Box,,Nusajaya",81550,Johor,Johor,,3.0728964846335702,101.61046847044645,false
701,Guardian Sunway Geo,"Lot F-01-11,Level 1,,Sunway Geo Avenue,,Jalan Lagoon Selatan, Bdr Sunway",47500,Selangor,Selangor,0356126951,3.065027523989645,101.60853089122877,false
704,Guardian Taman Chemor Ipoh,"Lot No.3, Ground Floor,,Jalan Silang 3,,Taman Chemor",31200,Perak,Perak,052011330,4.719194465235741,101.12024555820011,false
707,Guardian TF Taiping,"A14 & A15, TF Value Mart Taiping,Jln Perusahaan 3, Kawasan Perindustrian,Kamunting 3 Kamunting Raya",34600,Perak,Perak,058083449,4.863730321999276,100.70842645516345,false
710,Guardian TF Value Mart Sungai Petani,"NO A21 GIANT HYPERMARKET SUNGAI PET,PT20157,PT20209,PT50563-PT50584,PT50597 & PT50598,MUKIM SG PETANI",80000,Kedah,Kedah,044315505,5.616167797382536,100.4718538292615,false
713,Guardian Toppen Shopping Ctr,"Lot No. G.03, GF,,Toppen Shopping Centre,Tebrau",81100,Johor,Johor,073587405,1.5525601714279977,103.79834531340936,false
716,Guardian Trilium Lake Sg Besi,"Lot No. 5 & Lot No 7, Ground Floor,Jalan Tasik Utama 8, Taman Tasik Damai,Sungaii Besi",57000,Wil. Persekutuan,Wil. Persekutuan,0390542096,3.061314462068061,101.70907205180617,false
719,Guardian Tropicana Gardens,"Lot CC78,79,80,81&82A,,Concourse Level, Tropicana Gardens,,Kota Damansara",47810,Selangor,Selangor,0376257716,3.1490169244364004,101.59473458497558,true
722,Guardian U Mall Pulai Utama,"Lot F08, 1st Floor, TF Value Mart,,U Mall,No.45,Jln Persiaran Pulai Utama,,Taman Pulai Utama",81110,Johor,Johor,075201841,1.5465674718652427,103.62267550003696,false
725,Guardian U Sentral Segamat Johor,"Lot S15, S13A & S13,,Jalan Utama 3/2, Taman Bandar Utama",85000,Johor,Johor,079310934,2.5129130114479428,102.82187641355014,false
728,Guardian Wisma Central,"Lot 1.05 & 1.06 GF,&,Lot 2.11B, 2.13, 2.14 &,2.15 1st Floor,",50450,Wil. Persekutuan,Wil. Persekutuan,0321816645,3.1588625924525773,101.71427888501188,false
731,Wangsa Walk Wangsa Maju,"LOT G-41 WANGSA WALK MALL,WANGSA AVENUE,JALAN WANGSA PERDANA1,WANGSA MAJU",53300,Wil. Persekutuan,Wil. Persekutuan,0341426952,3.1992169372828,101.74254954689468,false
732,Guardian Permy Mall Miri,"Lot 102, 103 & 104,Ground Floor, Permy Mall,Bandar Baru Permyjaya",98000,Sarawak,Sarawak,,4.4502633230803115,114.03818486594584,false
740,Guardian My Town Cheras,"Lot No. B1-063A, Basement 1,MyTOWN Shopping Centre,No. 6, Jln. Cochrane, Sek. 90",55100,Wilayah Persekutuan ,Jln. Cochrane,0392747207,3.135542908251499,101.72289800936731,true
743,Guardian Pinnacle Mall Sri Petaling,"Lot LG-06 & LG-07,Pinnacle Sri Petaling Mall,Jln. Radin Anum 1",57000,Wilayah Persekutuan,Jln. Radin Anum ,,3.068910403330328,101.69473871422248,false
746,Guardian Pavilion Bkt Jalil,"Lot 1.89.00 & 1.90.00, Level 1,Pavilion Bukit Jalil,Persiaran Jalil Utama, Bukit Jalil",57000,Wilayah Persekutuan,Bukit Jalil,,3.050539400308793,101.67094507356491,true
749,Guardian Mitsui Lalaport,"Lot L2 - 12B, Level 2,Mitsui Shopping Park Lalaport KL,No. 2, Jln. Hang Tuah",55100,Wilayah Persekutuan,Jln. Hang Tuah ,,3.1409475050593225,101.70810785200203,true
752,Guardian Setia Taipan Setia Alam,"No. 111-G, Ground Floor,Jalan Setia Gemilang BG,U13/BG, Precint 15, Setia Alam",40170,Selangor,Setia Alam ,,3.12840563144879,101.47136910374209,false
755,Guardian AEON Mall Tebrau,"Lot F26, AEON Mall Tebrau City,3, Persiaran Desa Tebrau,Taman Desa Tebrau",81100,Johor,Taman Desa Tebrau,,1.5493860563559125,103.79639965766997,true
758,Guardian NSK Cheras,"Lot F13 - F16,NSK Hypermarket Cheras,Lebuhraya Cheras-Kajang",43200,Wil. Persekutuan,Lebuhraya Cheras-Kajang,,3.0221215980293463,101.76514262190095,false
764,Guardian Seksyen 8 Kota Damansara,"Lot 13, Ground Floor,Jalan Pekaka 8/2,Kota Damasara",47810,Selangor,Kota Damasara,0361508853,3.1752125805337883,101.57548560538832,false
767,Guardian United Point Kepong,"Unit LG-09, Lower Ground Floor,United Point,Jalan Lang Emas",51200,Wil. Persekutuan,Jalan Lang Emas,,3.190902077431465,101.65426777610175,false
770,Guardian Eco Majestic,"Lot 1-2, Blok 1,Jalan Eco Majestic 10/1,Eco Majestic",43500,Selangor,Eco Majestic,,2.9003165861636204,101.83328085943386,false
773,Guardian Faber Tower,"Lot 112&113A,1st Floor,Podium Block,,Faber Towers,Jln Desa Bahagia,,Taman Desa",58100,Wil. Persekutuan,Taman Desa,0379723599,3.1021370859555466,101.68467885924485,false
776,Guardian Dgarden Batu Pahat,"No. 8,(GF) & Part of No.10 (GF),,Jalan Desa Botani 1,,Taman Desa Botani",83000,Johor,Taman Desa Botani,,1.8687776217198264,102.93260533017114,false
779,Guardian Emart Bintulu,"Lot 8631, Ground Floor,Jalan Tun Ahmad Zaidi,Berjaya Commercial Centre",97000,Sarawak,Berjaya Commercial Centre,086340510,3.191409303898467,113.04765072973558,false
782,Guardian NSK Rawang Jaya,"Lot. No 3-8 & 3-9, Level 3, NSK Rawang Jaya",48000,Selangor,Rawang,,3.3529581484334456,101.57841266813224,false
785,Guardian Kota Samarahan,"Lot 101 & 102, Ground Floor,Jalan Datuk Mohammad Musa",94300,Sarawak,Kota Samarahan,082368342,1.4550995348763953,110.45873781014767,false
788,Guardian Kudat Sabah,"Lot 3, Ground Floor,Block B, Sedco New Shophouse,Pekan Tomborungus, Kudat",89050,Sabah, Kudat,,6.879757092792198,116.85068809771673,false
791,Guardian Taman Meranti Puchong,"No. 101-G, Blok F,Tanming Boulevard,,Jln Meranti Jaya 3/1,,Tmn Meranti Jaya",47120,Selangor,Tmn Meranti Jaya,,2.9794253268443422,101.60687127215168,true
800,Guardian Jalan Bunga Tanjung Mentakab,"Lot 9, Ground Floor,Jalan Bunga Tanjung",28400,Pahang,Jalan Bunga Tanjung,092779642,3.483692505258355,102.35026684007853,false
806,Guardian Radia Jelutong Shah Alam,"G-33A, Komersial Radia Persiaran Arked,Bukit Jelutong,,Seksyen U8",40150,Selangor,Bukit Jelutong,,20.9790643,105.7854772,false
809,Guardian Eastern Mall Siburan,"Unit 1, Grd Floor, Lot 1964 B. Block 6,Sentah-Segu Land, 17th Mile,Jalan Kuching Serian, Siburan",94200,Sarawak,Siburan,,1.3637140246138375,110.40229038554004,false
812,Guardian Emart Moyan Kuching,"LOT SN02, GF, Genesis Mall 2,,Jalan Batu Kawa - Matang,",93250,Sarawak ,Jalan Batu Kawa - Matang,,1.5075532099474362,110.25069723068766,false
815,Guardian The Meditel Kuching,"Lot 1, Section 21, Meditel,,Jln Tun Abang Haji Openg",93586,Sarawak,Sarawak,,1.544360408994098,110.34043814216905,false
818,Guardian Kota Belud,"Lot 32, Ground Floor,,Jalan Keruak,,Kota Belud",89157,Sabah,Kota Belud,,6.393322460520033,116.43134897732443,false
823,Guardian AEON Kinta Mall,"F27, AEON Mall, No.2, Jalan Teh Lean Swee,",31400,Perak,PERAK,,4.616645215654886, 101.11768882129905,true
826,Guardian Pearl Point Shopping Mall,"Lot G18 & G19, Ground Floor, Pearl Point Shopping Mall,",58000,Wil. Persekutuan,WILAYAH PERSEKUTUAN KL,,3.091754500249918,101.67332992828875,true
832,Guardian Bataras Superstore Papar,"Lot 99, Beaufort Commercial Centre, 1/2 KM Jalan Pengalat",89600,Kota Kinabalu,Sabah,,20.9790643,105.7854772,false
841,Guardian Kota Emas Pontian,"NO 44 & 45 JALAN EMAS 2, PUSAT PERNIAGAAN KOTA EMAS",82000,PONTIAN,JOHOR,,20.9790643,105.7854772,false
844,Guardian Bandar Sri Putra,"Lot No 62, Jalan Seri Putra 1/4,Bandar Seri Putra, Bangi",43000,Selangor,Selangor,0389201858,20.9790643,105.7854772,false
847,Guardian City Mall Kota Kinabalu,"Lot M-0-77 (S014) Ground Floor,City Mall, Jalan Lintas",88300,Kota Kinabalu,Sabah,088448260,20.9790643,105.7854772,true
850,Guardian Bandar Baru Sungai Buloh,"NO 368 JALAN 1A/3,BANDAR BARU SUNGEI BULOH",47000,Sungai Buloh,Selangor,0361565120,20.9790643,105.7854772,false
852,Guardian Bandar Meru Jaya Ipoh,"No. 21G, Jalan Meru Bestari B5,Medan Meru Bestari,Jelapang",30020,Ipoh,Perak,055252504,20.9790643,105.7854772,false
855,Guardian Pusat Perniagaan Putra Raub,"No. A12 & A13, Ground Floor,Lorong Raub 1, Pusat Perniagaan Putra,Raub",27600,Raub,Pahang,093562385,20.9790643,105.7854772,false
1035,Guardian Target Tmn Kluang Perdana,"GPK14, Target Supermarket Kluang Perdana,Jalan Kluang Perdana 22,Taman Kluang Perdana",86000,Johor,Johor,077596538,20.9790643,105.7854772,false
1038,Guardian Kuching Airport,"Lot L1 L09 & L1 L10, Level 1,Arrival Hall,Kuching International Airport",93250,Sarawak,Sarawak,,20.9790643,105.7854772,false
1041,Guardian Sandakan Airport,"Lot GF L13, Ground Level,,Public Concourse/Arrival Level(Landside),Sandakan Airport",90000,Sabah,Sabah,,20.9790643,105.7854772,false
1044,Guardian Tawau Airport,"Lot GF L03 & GF L04, Ground Floor,,Public Concourse,Arrival Level (Landslide), Tawau Airport",91011,Sabah,Sabah,,20.9790643,105.7854772,false
1047,Guardian KK Airport,"Lot L3 L10 & L3L11 , Level 3,Departure Hall (Landslide),,KK International Airport,",88740,Sabah,Sabah,,20.9790643,105.7854772,false
1050,Guardian Bdr Prima Senawang,"No. 37, Jalan BPS 3,,Bandar Prima Senawang",70450,Negeri Sembilan,Negeri Sembilan,,20.9790643,105.7854772,false
1053,Guardian NSK Klang Sentral,"Lot F1, NKS Klang Sentral,2, Persiaran Klang Sentral 2,Taman Klang Sentral, Pekan Meru",41050,Selangor,Selangor,,20.9790643,105.7854772,false
1062,Guardian Pines Square Kuching,"Lot 9 & 10, Ground Floor,,Block 4 Pines Square,,Jalan Batu Kawa,",93250,Sarawak,Sarawak,,20.9790643,105.7854772,false
1065,Guardian Klippa Batu Kawan,"LG08 Lower Grd Flr, Klippa Shopping Ctr,No. 752, Persiaran Cassia Selatan 8,Bandar Cassia",14110,Pulau Pinang,Pulau Pinang,,20.9790643,105.7854772,false
1068,Guardian Pendang Square Kedah,"No.14, Ground Floor,Persiaran Pendang Square 1,Pendang Square, Pendang",6700,Kedah,Kedah,,20.9790643,105.7854772,false
1074,Guardian Taman Mount Austin Johor,"Lot No.8, Jalan Austin Height 8/9,Taman Mount Austin",81100,Johor,Johor,,20.9790643,105.7854772,false
1077,Guardian TTDI Grove Kajang,"Lot 8-1, Ground Floor,Jalan TTDI Grove 1/1",43000,Selangor,Selangor,,20.9790643,105.7854772,false
1080,Guardian Prima Square Sandakan,"Lot 74 & 75, Ground Floor,Block 6, Prima Square,Jalan Utara",90000,Sabah,Sabah,,20.9790643,105.7854772,false
1083,Guardian Gua Musang Kelantan,"Lot PT 8378, Ground Floor,Taman Wangsa Mewangi,Jalan Persiaran Raya",18300,Kelantan,Kelantan,,20.9790643,105.7854772,false
1086,Guardian Kelapa Sawit Kulai,"No. 3, Jalan Impiana 1,Taman Impiana Kelapa Sawit",81030,Johor,Johor,,20.9790643,105.7854772,false
1089,Guardian SOGO KL,"Lot L7-4 & L7-5, Level 7, SOGO KL,Jalan Tuanku Abdul Rahman,City Centre",50100,Wil. Persekutuan,Wil. Persekutuan,,20.9790643,105.7854772,false
1092,Guardian Rasah Jaya Seremban,"Lot 3827-G, Jalan RJ 6/8,Taman Rasah Jaya",70300,Negeri Sembilan,Negeri Sembilan,,20.9790643,105.7854772,false
1095,Guardian Centre Point Seremban,"G-19, Centrepoint Seremban,Lot PT 9149, Jln Dato' Siamang Gagap",70100,Negeri Sembilan,Negeri Sembilan,,20.9790643,105.7854772,true
1098,Guardian Tmn Kok Lian Jln Ipoh,"No. 27, Ground Floor,Jalan Batu Ambar Off Jalan Ipoh,Taman Kok Lian",51200,Wil. Persekutuan,Wil. Persekutuan,,20.9790643,105.7854772,false
1101,Guardian Jengka Pahang,"Lot No. 43, Ground Floor,Lorong Baiduri 5 Nadi Kota,Bandar Jengka, Bandar Tun Razak",26400,Pahang,Pahang,,20.9790643,105.7854772,false
1104,Guardian Setia Ecohill Semenyih,"No 36, Ground Floor,Jalan Ecohill 1/5A,,Setia Ecohill",43500,Selangor,Selangor,,20.9790643,105.7854772,false
1107,Guardian AEON Cheras Selatan,"F-37, AEON Mall Cheras Selatan,Jalan Cheras Perdana Cheras,Balakong",43200,Selangor,Selangor,,20.9790643,105.7854772,false
1110,Guardian Mukah Sarawak,"Lot D-4, Block D, Mukah Biotech,Bandar Baru Mukah,Jalan Mukah Baligian, Mukah",96400,Sarawak,Sarawak,,20.9790643,105.7854772,false
1119,Guardian IOI Sierra Fresco,"Lot 5-5, Jalan Sierra 10/1,Bandar 16 Sierra",47110,Selangor,Selangor,,20.9790643,105.7854772,false
1125,GUARDIAN BATARAS KEPAYAN,"LOT 1, BATARAS SUPERSTORE KEPAYAN,,JALAN BANJARAN, KEPAYAN RIDGE,",88200,Sabah,Sabah,,20.9790643,105.7854772,false
1128,PEKAN KUALA SELANGOR,"LOT NO 28, GROUND FLOOR,,JALAN RAJA JALIL",45000,Selangor,Selangor,,20.9790643,105.7854772,false
1131,GUARDIAN BATARAS PUTATAN,"LOT 14, BATARAS HYPERMARKET,PUTATAN RW,NO.CL 215012883, KM 11,JLN PUTATAN, PUTATAN RAILWAY STATION",88869,Sabah,Sabah,,20.9790643,105.7854772,false
1137,Guardian Sri Iskandar Perak,"No. 28, Persiaran SIBC 2,Seri Iskandar Buiness Centre,Seri Iskandar",32610,Perak,Perak,,20.9790643,105.7854772,false
1140,GUARDIAN BATARAS LABUAN,"LOT E001, BATARAS SUPERSTORE LABUAN,,FINANCIAL PARK, LABUAN COMPLEX,,JALAN MERDEKA",87000,Labuan,Labuan,,20.9790643,105.7854772,false
1143,Guardian Hann's Residence Sibu,"Lots 18, 19, 20, 21, 22 & 23, Grd Floor,Lots 660, Block 7,Sibu Town District, Sibu",96000,Sarawak,Sarawak,,20.9790643,105.7854772,false
1146,Guardian Datum Jelatek Shopping Ctr,"Lot No. G-16 & G-17, Ground Floor,Datum Jelatek Mall, Jalan Enggang,Taman Keramat",54200,Wil. Persekutuan,Wil. Persekutuan,,20.9790643,105.7854772,false
1149,Guardian Sipitang Sabah,"LPPB Lot 11,Jalan OKK Haji Puteh,Sipitang",98850,Sabah,Sabah,,20.9790643,105.7854772,false
1155,Guardian Tmn Rambai Jaya Melaka,"No. 45, Jalan Rambai Jaya 29,Taman Rambai Jaya",75260,Melaka,Melaka,,20.9790643,105.7854772,false
1158,Guardian Jln Terminal Kampar,"No. 82, Jalan Terminal Kampar 1/D,Pusat Perdagangan Kampar",31900,Perak,Perak,,20.9790643,105.7854772,false
1161,Guardian Kota Permai Bkt Mertajam,"Lot 2A, Jalan Lembah Permai 1,Kota Permai",14000,Pulau Pinang,Pulau Pinang,,20.9790643,105.7854772,false
1167,Guardian Bandar Indahpura Kulai,"No 177, Jalan Kiambang 12,Pusat Komersial Indah,Bandar Indahpura",81000,Johor,Johor,,20.9790643,105.7854772,false
1170,Guardian Seksyen 18 Shah Alam,"No.12, Jalan Pinang C 18/C,Seksyen 18",40200,Selangor,Selangor,,20.9790643,105.7854772,false
1176,Guardian Maha City Langkawi,"No. 3A-G, Jalan Mahawangsa 1",7000,Kedah,Kedah,,20.9790643,105.7854772,false
1182,Guardian Jalan Luak Bay Miri,"Lot 8526, Ground Floor,Jalan Luak Bay",98000,Sarawak,Sarawak,,20.9790643,105.7854772,false
1194,Guardian Eco Palladium Johor,"01-07, Block C,Jalan Ekoflora 7,Jalan Ekoflora Utama",81100,Johor,Johor,,20.9790643,105.7854772,false
1197,Guardian Tenom Sabah,"Lot 27, Ground Floor,Jalan Toh Puan Hajjah Kusnah,Tenom",89907,Sabah,Sabah,,20.9790643,105.7854772,false
1203,Guardian Jalan Ling Kai Cheng Sibu,"No.2, Ground Floor,Lorong Ling Kai Cheng 14B,Jalan Ling Kai Cheng",96000,Sarawak,Sarawak,,20.9790643,105.7854772,false
1206,Guardian Taman Paya Rumput Melaka,"No. 23, Jalan Inang 1,Paya Rumput Utama",76450,Melaka,Melaka,,20.9790643,105.7854772,false
1209,Guardian KCC City Muar Johor,"No. 23A & 25, Ground Floor,Jalan Gemilang Bakri 1,Pusat Komersial Gemilang Bakri",84200,Johor,Johor,,20.9790643,105.7854772,false
1212,Guardian Taman Desa Cemerlang Johor,"No. 20, Jalan Tanjong 2,,Taman Desa Cemerlang,Ulu Tiram",81800,Johor,Johor,,20.9790643,105.7854772,false
1215,Guardian Kipmall Bachang,"L1- S116-S117 & S093-S096,,Kipmall Melaka,,Jln Tun Fatimah, Bachang,",75250,Melaka,Melaka,,20.9790643,105.7854772,false
1218,Guardian KL Trader Square,"Lot 47-G, Ground Floor, Block C,Plaza KLTS, 99 Jalan Gombak,Setapak",53000,Wil. Persekutuan,Wil. Persekutuan,,20.9790643,105.7854772,false
1221,Guardian Plaza CKS Tuaran,"Lot 40 & 41, Ground Floor, Block C,,Plaza CKS Tuaran, Kg. Tutoh,Tuaran",88400,Sabah,Sabah,,20.9790643,105.7854772,false
1224,Guardian P. Komersial Saujana Sbn 2,"No. 141G, Jln Pusat Komersial Saujana 5,Pusat Komersial Saujana,Seremban 2 Height",70300,Negeri Sembilan,Negeri Sembilan,,20.9790643,105.7854772,false
1227,Guardian Centrum Cameron Highlands,"Lot No. 2,3,4 & 5, Lower Ground Floor,Billion Shopping Centre,PT3286, Mukim Tanah Rata, Cameron Highla",39000,Pahang,Pahang,,20.9790643,105.7854772,false
1230,Guardian Kip Mart Masai,"Lot A006-C & S008-B & S009.,Kip Mart Masai,,Jln Persiaran Dahlia 2,Tmn Bkt Dahlia",81700,Johor,Johor,,20.9790643,105.7854772,false
1233,Guardian Cmart Serai Wangi,"Lot G39, G40, G41, G42, H.S (D) 78056,Mukim Bandar Padang Serai",9400,Kedah,Kedah,,20.9790643,105.7854772,false
1236,Guardian Kubota Sentral Tawau,"TB 73 & TB 74, Lot P2 & P3,Ground Floor, Kubota Sentral,Jalan Chong Thien Vun",91000,Sabah,Sabah,,20.9790643,105.7854772,false
1239,Guardian Bandar Saujana Putra,"Bandar Saujana Putra ,,Jenjarom",42610,Selangor,Selangor,,20.9790643,105.7854772,false
1242,Guardian Pusat Perdagangan Banting,"Lot No. 9-G, Jalan Cemerlang 1,Pusat Perdagangan Banting",42700,Selangor,Selangor,,20.9790643,105.7854772,false
1245,Guardian Silibin Ipoh Perak,"Lot 49 (Ground Floor),Jalan Pusat Perniagaan Silibin 2,Pusat Perniagaan Silibin, Jln Jelapang",301100,Perak,Perak,,20.9790643,105.7854772,false
1248,Guardian C Mart Changloon,"Lot F5, First Floor, Cmart Changlun,Kompleks Changlun, No. 1,Pekan Changlun",6010,Kedah,Kedah,,20.9790643,105.7854772,false
1254,Guardian Cmart Jitra,"Lot 49, 50 & 51, Grd Floor,C-Mart BDI Jitra Jln Industri Darul Aman,Kawasan Perusahaan Bandar",6000,Kedah,Kedah,,20.9790643,105.7854772,false
1257,Guardian Pantai Remis,"Lot No 62, Jalan Damai Laut,Pantai Remis",34900,Perak,Perak,,20.9790643,105.7854772,false
1260,Guardian Jalan Beserah,"A-6606, Ground Floor,,Taman Metro,  Jalan Beserah",25250,Pahang,Pahang,,20.9790643,105.7854772,false
1263,Guardian Masjid Tanah Melaka,"675, Jalan Penara Jaya,Masjid Tanah",78300,Melaka,Melaka,,20.9790643,105.7854772,false
1266,Guardian Pekan Nenas,"Lot No.6, Jalan Permata 1,Pusat Perdagangan Pekan Nenas",81500,Johor,Johor,,20.9790643,105.7854772,false
1269,Guardian Tropicana Avenue,"Lot P-G-11, Ground Floor,Tropicana Avenue, Persiaran Tropicana,Tropicana",47410,Selangor,Selangor,,20.9790643,105.7854772,false
1272,Guardian City Junction,"Lot No. 2-2-7 ©, Level 2, City Junction,Jalan Tanjong Tokong 2,Persiaran Lengkuas, Tanjung Tokong",10470,Pulau Pinang,Pulau Pinang,,20.9790643,105.7854772,false
1275,Guardian Denai Alam,"Lot No. 33-1, Jalan Elektron D 16/D,Denai Alam",40150,Selangor,Selangor,,20.9790643,105.7854772,false
1281,Guardian Jerantut,"S-30 & S-31,,Ground Floor, Jalan Benom,Bandar Baru, Jerantut",27000,Pahang,Pahang,,20.9790643,105.7854772,false
1284,Guardian Limbang,"Lot 2002, Ground Floor,Limbang Town District, Tmn Metro,Jalan Beserah, Limbang",98700,Sarawak,Sarawak,,20.9790643,105.7854772,false
1290,Guardian Golden Triangle,"Lot 1-13A & 1-15A, Level 1,,Golden Triangle 2,,Jln Dato Ismail Hashim,Kg Pagar Buluh,",11900,Pulau Pinang,Pulau Pinang,,20.9790643,105.7854772,false
1293,Guardian Bandar Sri Permaisuri,"Lot 53, Jalan Sri Permaisuri 8,Bandar Sri Permaisuri",56000,Wil. Persekutuan,Wil. Persekutuan,,20.9790643,105.7854772,false
1296,Guardian Jasin Melaka,"No. JC 540, Jalan Bestari 5,Bandar Jasin Bestari,Bemban",77200,Melaka,Melaka,,20.9790643,105.7854772,false
1305,Guardian Subang Perdana,"No. 41-G, Ground Floor,,Jalan Dinar G U3/G,,Tmn Subang Perdana, Seksyen U3,",40150,Selangor,Selangor,,20.9790643,105.7854772,false
1308,Guardian Eco Botanic City,"Lot No 6,Jalan Eko Botani 3/3,,Taman Eko Botani,,Iskandar Puteri, Johor",79100,Johor,Johor,,20.9790643,105.7854772,false
1311,Guardian Eco Santuary Selangor,"No. 66-G, Jalan Eco Santuari 8/2b,Eco Santuari,Teluk Panglima Garang",42500,Selangor,Selangor,,20.9790643,105.7854772,false
1314,Guardian Puncak Jalil,"No. 92, Ground Floor,,Jln PUJ 3/2,Tmn Puncak Jalil,,Bandar Putra Permai,",43300,Selangor,Selangor,,20.9790643,105.7854772,false
1320,Guardian Presint 15 Selangor,"No. 5, Jalan Diplomatik P15,Presint 15",62050,Wil. Persekutuan,Wil. Persekutuan,,20.9790643,105.7854772,false
1323,Guardian Metro Mall Kuching,"Lot GS2 & GS3, Ground Floor,Metromall Metrocity Matang",93050,Sarawak,Sarawak,,20.9790643,105.7854772,false
1326,Guardian Kunak,"Lot A1, Ground Floor,Kunak Plaza,Kunak",91207,Sabah,Sabah,,20.9790643,105.7854772,false
1332,Guardian Lmn Rimbunan Kepong,"No.138-G, Ground Floor,,Jalan Rimbunan Raya,,Laman Rimbunan, Kepong",52100,Wil. Persekutuan,Wil. Persekutuan,,20.9790643,105.7854772,false
1335,Guardian Fin Park Labuan,"Lot E001(B), Ground Floor,,Financial Park Labuan Complex,,Jln Merdeka,",87000,Sabah,Sabah,,20.9790643,105.7854772,false
1338,Guardian Kapit Sarawak,"Lot 9 & 10, Grd Flr, Lot 619 & Lot 620,Lorong Selirik 2A, Kapit Town District,Kapit",96800,Sarawak,Sarawak,,20.9790643,105.7854772,false
1341,Guardian 88 Marketplace Kepayan,"Lot 8, Ground Floor, Block C,Lrg Pusat Komersial 88/2, Marketplace 88,Jalan Kepayan",88300,Sabah,Sabah,,20.9790643,105.7854772,false
1344,Guardian Cerah Comm Centre Beaufort,"No. 9, Ground Floor,Lorong Cerah Commer Centre 3,Pekan Beaufort, Beaufort",89800,Sabah,Sabah,,20.9790643,105.7854772,false
1347,Guardian Iconic Point Penang,"9-G & 11-G, Jalan Iconic Point,Iconic Point,Simpang Ampat",14100,Pulau Pinang,Pulau Pinang,,20.9790643,105.7854772,false
1350,Guardian Bandar Baru Teluk Intan,"Lot No 137 & 138, Tingkat Bawah,Jalan Intan 1,Bandar Baru Teluk Intan",36000,Perak,Perak,,20.9790643,105.7854772,false
1353,Guardian Batang Kali Selangor,"No. 61-G, Bandar Utama Batang Kali,Batang Kali",44300,Selangor,Selangor,,20.9790643,105.7854772,false
1356,Guardian Sikamat Seremban,"449, Jalan Sri Pulai 26,Taman Sri Pulai",70200,Negeri Sembilan,Negeri Sembilan,,20.9790643,105.7854772,false
1359,Guardian Ranau Sabah,"No. 7, Ground Floor, Block B,Lorong Taman, Ranau New Township,,Ranau",88300,Sabah,Sabah,,20.9790643,105.7854772,false
1362,Guardian T2@Apas Tawau,"Lot A.7.1 & A.8.1, Ground Floor,T2@APAS",91000,Sabah,Sabah,,20.9790643,105.7854772,false
1368,Guardian Bandar Kapalai Semporna,"Lot 7, Ground Floor,Bandar Kapalai Semporna,Mile 1.5, Jalan Bubul",91308,Sabah,Sabah,,20.9790643,105.7854772,false
1371,Guardian Jln Raja Uda Penang,"No. 19 & 21, Blok Q, Jalan Raja Uda,Pusat Perniagaan Raja Uda,Butterworth",12300,Pulau Pinang,Pulau Pinang,,20.9790643,105.7854772,false
1374,Guardian Menara Hap Seng KL,"Lot 1.20B, Level 1,Menara Hap Seng,Jalan P. Ramlee",50250,Wil. Persekutuan,Wil. Persekutuan,,20.9790643,105.7854772,false
1377,Guardian NSK Seremban,"Lot 16,17 & 18,,NSK Trade City Seremban 2,Jln Haruan 2,Medan Perdagangan Oakland",70300,Negeri Sembilan,Negeri Sembilan,,20.9790643,105.7854772,false
1380,Guardian Keningau Sabah,"Lot 28, Ground Floor, Block A6,Pegalan Shoppling Complex",89008,Sabah,Sabah,,20.9790643,105.7854772,false
1383,Guardian Sri Aman Square Sarawak,"Lot 9 & 10, Ground Floor,Sri Aman Square, Kampung Muhibbah,Sri Aman",95000,Sarawak,Sarawak,,20.9790643,105.7854772,false
1386,Guardian Farley Mall Sarawak,"Lot 4, Farley Mall,Lot 4547, Block 233, KNLD,Jln Penrissen, 6th Miles",93250,Sarawak,Sarawak,,20.9790643,105.7854772,false
1392,Guardian Setia Tropika JB,"Taman Setia Tropika,Lot No.9, Jalan Setia Tropika 1/15",81200,Johor,Johor,,20.9790643,105.7854772,false
1395,Guardian Tun Razak Exchange (TRX),"No. C.32.0, Level Concourse, The Exchange TRX, Jalan Tun Razak,", 50450 ,Kuala Lumpur,Kuala Lumpur,,3.1447941,101.6977241,true
1398,JAYA SHOPPING CENTRE,"LOT NO LG-03A, 05 & 06,JAYA SHOPPING CENTRE,26A JALAN 14/4",46100,PETALING JAYA,SELANGOR,0379318171,3.109455707168503,101.63741713155093,true
1401,Guardian Jalan Tudan Miri,"Lot 2860, Ground Floor, Block 6, KBLD, Jalan Tudan",98100 ,Sarawak,Sarawak,,20.9790643,105.7854772,false
1404,Guardian Sibu Jaya,"No. 6, Ground Floor, Sibu Jaya Sapphire East Commercial Centre, Lorong Sibu Jaya Timur 1",96000,Sibu,Sarawak,084333203,2.2396895,111.9733989,false
1406,Guardian Bataras Grand Merdeka Mall,"No 7, Lot 2, Grand Merdeka Mall,Jalan Tuaran",88450,Menggatal,Sabah,,6.0611253,116.1794029,false
1409,Guardian Bandar Muadzam Shah Rompin,"Lot No. 82, Ground Floor,Jalan Makmur 2, Bandar Satelit,Muadzam Shah",26700,Rompin,Pahang,,3.0687077,103.0684695,false
1412,Guardian Setiawan Perak,"No.17, Taman Sitiawan Maju 2",32000,Perak,Perak,056913331,,,false
1415,Guardian Saratok Sarawak,"Lot 88, Ground Floor,Jalan Pahlawan, Saratok Bazaar",95400,Sarawak,Sarawak,,1.7414633,111.3365376,false
1418,"Guardian Sama Square, Kuala Lumpur","Lot G13, Ground Floor, Sama Square, Jalan 1/23C, Kg Baru Air Panas, ",53200 ,Kuala Lumpur,Kuala Lumpur,,3.194148,101.7202435,false
1421,Guardian Damai Plaza,Kota Kinabalu,88300,Kota Kinabalu,Sabah,,5.9617238,116.0890592,false
1424,Guardian Hutan Melintang,"No. 57, Ground Floor, Lorong Lagenda 2,  Medaniaga Lagenda, Jalan Hutan Melintang",36400,Perak,Perak,,4.0192465,100.698263,false
1436,Guardian Canning 2,"No. 27 (Ground Floor),  Hala Pusat Perdagangan Canning 1",30350,Ipoh,Perak,055412938,4.5980432,101.1057923,false
1439,Guardian KLIA Satellite Airport," KLIA Satellite Airport  Lot No. SAT-P-A04, Passenger Level,  Satellite Building, KLIA Departure,Kuala Lumpur International Airport,",43900 ,Selangor,Selangor,,2.7436024,101.6929659,false
1442,IOI CITY MALL PUTRAJAYA," LOT NO. G-21, IOI Resort City, Ioi Resort,",43000,Wil. Persekutuan,Selango,0389400089,2.9697469,101.7147768,true
1443,Guardian Bloomsvale Shopping Gallery,"Lot No. LG-003, Lower Ground Floor,  Bloomsvale Shopping Gallery,",58200,Kuala Lumpur,Kuala Lumpur,,3.0754053,101.6581117,false
1444,Guardian Lebuh Sungai Pinang,"No. 22G & 24G, Lebuh Sungai Pinang 1",11600 ,Pulau Pinang,Pulau Pinang,,5.3981406,100.3284372,false
1447,Guardian Bandar Tasik Putri Rawang,"No. 215, Block R-G-118 & R-G-120,  Ground Floor, Jalan 7A/3, Bandar Tasik Putri,",48020,Selangor,Selangor,0360950688,3.2828425,101.4728195,false
1450,Guardian AEON Bandaraya Melaka,"Lot S13 & S15, Level 2, AEON Bandaraya Melaka Shopping Centre 2, Jalan Lagenda, Taman 1 Lagenda",75400,Melaka,Melaka,,2.2144704,102.2440514,false
1453,Guardian AEON Kota Bahru,"Lot F13 (1st Floor), AEON Mall Kota Bharu, Lembah Sireh, Kota Bharu",15050 ,Kelantan,Kelantan,099350201,6.1100676,102.2307775,false
1454,"Guardian Sunshine Mall, Penang","Lot No. B1.12, Basement 1, Sunshine Mall,  Bandar Baru Air Itam,",11500,Pulau Pinang,Pulau Pinang,,5.398892,100.2831673,false
1457,Guardian 168 Selayang,"Lot LG-10, Lower Ground Floor, 168 Park Mall Selayang, Jalan Kuching",68100,Batu Caves,Selangor,,3.2491824,101.6471068,false
1460,"Guardian Mayang Mall, Kuala Terengganu","LG - 10, Lower Ground, Mayang Mall, Jalan Sultan Zainal Abidin, Kampung Surau Pasir,",20000,Kuala Terengganu,Terengganu,,5.3368672,103.1441995,false
1463,"Guardian Eco Galleria, Iskandar Puteri, Johor Bahru","B0125, Blok B Eko Galleria,  Jalan Eko Botani 3, Taman Eko Botani, ",79100, Iskandar Puteri ,Johor,075879679,103.6109219,1.4435817,false
1466,"Guardian GITT Mall, Gombak","Lot No. L2-24, Level 2, Terminal Bersepadu Gombak, Jalan Lingkaran Tengah 2",68100 ,Gombak,Selangor,,3.230249749315053,101.72525945362673,false
1469,"Guardian Mercato Kulim, Kedah","Lot No NF01, Mercato Kulim Landmark Central Shopping Center, No 1, Jalan Resak Satu, Taman Resak,", 09000,Kulim,Kedah,,5.385537,100.546595,false
1472,"Guardian Kangar Jaya, Perlis","Ground Floor, No. 2 Jalan Kangar Jaya,  Jalan Tunku Syed Putra (Jalan Kangar – Alor Setar) ",01000 ,Kangar,Perlis,,100.1817561,6.4077892,false
1473,Guardian Mirai Residence Kajang,"1-07, Mirai Residence (Residensi Meriah), Persiaran Kajang 2, Kajang 2,",43000,Kajang,Selangor,,2.964077423548483,101.79740400258561,false
1476,Guardian I Molek Melaka,"62, Jalan Impian 2,  Taman Pengkalan Impian",75460,Melaka,Melaka,,2.2263704,102.3220816,false
1479,"Guardian Amart Kempas, Johor Bahru","Lot AT08, Pasar Komuniti @ mart Kempas, No. 10, Jalan Persiaran Tanjung, Taman Cempaka, ",81200,"Johor Bahru,",Johor,,1.5159873,103.7022129,false
1485,Guardian KIP Mall Tampoi,"Lot S115, Kip Villa Indah,  01-03, Jalan Titiwangsa 1,  Taman Tampoi Indah ",81200 ,Johor Bahru ,Johor ,,1.5097357,103.6837928,false
1491,"Guardian Bangi Avenue, Selangor","Lot Pt 78465 & 78466 (Ground Floor), Persiaran Bangi Avenue,  Bangi Avenue,",43000,Kajang,Selangor,,2.9030744,101.7870641,false
1497,GUARDIAN GIANT PANDAN KAPITAL,"LOT L2/1,2&59, LVL2(GF),PUSAT BELI-,PERSIARAN MPAJ OFF JLN PANDAN UTAMA,PANDAN INDAH",55100,Ampang,Kuala Lumpur,0342919205,3.1287728,101.74914,false